都道府県コード又は市町村コード,No,都道府県名,市区町村名,事業所名,事業所名カナ,サービスの種類,住所,方書（ビル名等）,緯度,経度,電話番号,FAX番号,法人番号,法人の名称,事業所番号,利用可能曜日,利用可能曜日特記事項,定員,URL,高齢者の方と障害者の方が同時一体的に利用できるサービス,介護保険の通常の指定基準を満たしている,障害福祉の通常の指定基準を満たしている,備考
011029,0170210231,北海道,札幌市北区,アサヒサンクリーン在宅介護センター札幌北,アサヒサンクリーンザイタクカイゴセンターサッポロキタ,訪問入浴介護,札幌市北区麻生町６丁目６番９号あざぶマリオン１階,あざぶマリオン１階,43.112507300000000,141.340640400000000,050-3625-3862,011-790-6667,5080001018392,アサヒサンクリーン株式会社,0170210231,"平日,祝日",,0,https://www.asahi-sun-clean.co.jp/,,,,
011029,0170201115,北海道,札幌市北区,アースサポート札幌,アースサポートサッポロ,訪問入浴介護,北海道札幌市北区北25条西6丁目3番23号,,43.092105700000000,141.340639600000030,011-700-3366,011-700-1188,2011001027780,アースサポート株式会社,0170201115,"平日,土曜日,祝日",その他休業日：12月30日～1月3日,0,http://www.earthsupport.co.jp,,,,
011037,0170209894,北海道,札幌市東区,アサヒサンクリーン在宅介護センター札幌東,アサヒサンクリーンザイタクカイゴセンターサッポロヒガシ,訪問入浴介護,札幌市東区北９条東16丁目１番13号,,43.076254500000000,141.378295900000000,050-3508-9501,011-299-8310,5080001018392,アサヒサンクリーン株式会社,0170209894,"平日,祝日",,0,https://www.asahi-sun-clean.co.jp/,,,,
011037,0170209134,北海道,札幌市東区,ツクイ札幌東,ツクイサッポロヒガシ,訪問入浴介護,北海道札幌市東区北24条東21丁目7-22,,43.095451900000000,141.385783800000000,011-787-3995,011-787-3997,1020001136162,株式会社ツクイ,0170209134,"平日,土曜日,祝日",,0,https://www.tsukui.net/home-care/2049/,,,,
011045,0170515290,北海道,札幌市白石区,セントケア札幌白石,セントケアサッポロシロイシ,訪問入浴介護,南郷18丁目北3-9　MAPLE　HILLS南郷１階,,43.031803400000000,141.434706700000000,0118686015,,3430001021445,セントケア北海道株式会社,0170515290,平日,,0,http://www.saint-care.com/hokkaido,,,,
011053,0170500300,北海道,札幌市豊平区,三井ヘルスサービス株式会社,ミツイヘルスサービスカブシキカイシャ,訪問入浴介護,北海道札幌市豊平区平岸２条３丁目６－１３三井ビル平岸,,43.039496900000000,141.369441400000030,011-814-4016,011-823-4580,5430001016443,三井ヘルスサービス株式会社,0170500300,"平日,土曜日,日曜日,祝日",年末年始（１２/３０～１/３）休業,0,https://www.mitsui-hs.jp/,,,,
011053,0170515894,北海道,札幌市豊平区,アサヒサンクリーン在宅介護センター札幌豊平,アサヒサンクリーンザイタクカイゴセンターサッポロトヨヒラ,訪問入浴介護,札幌市豊平区中の島２条３丁目1-1グリーンコーポ中の島102,グリーンコーポ中の島102,43.036213800000000,141.359783400000000,050-3508-8151,011-876-8615,5080001018392,アサヒサンクリーン株式会社,0170515894,"平日,祝日",,0,https://www.asahi-sun-clean.co.jp/,,,,
011061,0170503726,北海道,札幌市南区,アースサポート札幌南,アースサポートサッポロミナミ,訪問入浴介護,北海道札幌市南区澄川4条2丁目3番10号,,43.016301000000000,141.367672299999980,011-813-9211,011-813-9212,2011001027780,アースサポート株式会社,0170503726,"平日,土曜日,祝日",日曜日　その他休業日：12月30日～1月3日,0,http://www.earthsupport.co.jp,,,,
011070,0170500110,北海道,札幌市西区,セントケア札幌,セントケアサッポロ,訪問入浴介護,北海道札幌市西区琴似1条6丁目4-3　札幌琴似第一ビル１F,,43.074102100000000,141.301549100000000,0116161884,0116162888,3430001021445,セントケア北海道株式会社,0170500110,平日,,60,https://www.saint-care.com/hokkaido,,,,
011070,0170404974,北海道,札幌市西区,ＳＯＭＰＯケア　札幌発寒　訪問入浴,ソンポケア　サッポロハッサム　ホウモンニュウヨク,訪問入浴介護,北海道札幌市西区発寒6条4丁目6番3号,,43.089275900000000,141.292424699999970,011-669-7071,011-662-7051,1260001015656,ＳＯＭＰＯケア株式会社,0170404974,"平日,土曜日,祝日",協力医療機関の営業時間及び居宅サービス計画に応じて、上記以外にも訪問入浴介護の提供を行う場合があるものとしています,0,http://www.sompocare.com,,,,
011070,0170403133,北海道,札幌市西区,アースサポート札幌西,アースサポートサッポロニシ,訪問入浴介護,北海道札幌市西区発寒4条2丁目3番10号,,43.085565600000000,141.297446700000020,011-662-7300,011-662-7310,2011001027780,アースサポート株式会社,0170403133,"平日,土曜日,祝日",日曜（改行）12/30～1/3を除く,0,http://www.earthsupport.co.jp/,,,,
011070,0170406060,北海道,札幌市西区,合同会社レゾナ,ゴウドウガイシャレゾナ,訪問入浴介護,北海道札幌市西区八軒８条東２丁目２番２０号セントベル八軒３０５,セントベル八軒３０５,43.088390500000000,141.318951800000000,0115560474,0113014575,1430003015422,合同会社レゾナ,0170406060,"平日,土曜日,祝日",年末年始　12/31～1/3　休日　（改行）祝日　稼働状況により営業,0,https://www.rezonallc.com/,,,,
011088,0170516108,北海道,札幌市厚別区,アサヒサンクリーン在宅介護センター札幌厚別,アサヒサンクリーンザイタクカイゴセンターサッポロアツベツ,訪問入浴介護,北海道札幌市厚別区厚別中央３条１丁目６番３号,,43.033655600000000,141.455536700000000,050-3508-1020,011-887-8808,5080001018392,アサヒサンクリーン株式会社,0170516108,"平日,祝日",,0,https://www.asahi-sun-clean.co.jp/,,,,
011088,0170506562,北海道,札幌市厚別区,アースサポート新札幌,アースサポートシンサッポロ,訪問入浴介護,北海道札幌市厚別区厚別中央3条5丁目7番23号,,43.043076200000000,141.471972500000000,011-896-1900,011-896-1901,2011001027780,アースサポート株式会社,0170506562,"平日,土曜日,祝日",,0,http://www.earthsupport.co.jp,,,,
012025,0171405459,北海道,函館市,藤井カンパニー合同会社,フジイカンパニーゴウドガイシャ,訪問入浴介護,北海道函館市富岡町1丁目29番14号コーポフジイⅡ　201号室,コーポフジイⅡ　201号室,41.804217600000000,140.746197100000000,0138-84-1168,0138-85-6573,2440003001569,藤井カンパニー合同会社,0171405459,"平日,土曜日,祝日",,,,,,,
012025,0171404593,北海道,函館市,ＳＯＭＰＯケア函館昭和訪問入浴,ソンポケアハコダテショウワホウモンニュウヨク,訪問入浴介護,北海道函館市昭和4丁目30-35,,41.816685800000000,140.731966400000030,0138-43-0525,0138-43-0526,1260001015656,ＳＯＭＰＯケア株式会社,0171404593,"平日,土曜日,祝日",協力医療機関の営業時間及び居宅サービス計画に応じて、上記以外にも訪問入浴介護の提供を行う場合があるものとしています。,70,https://www.sompocare.com/,,,,
012025,0171402258,北海道,函館市,アースサポート函館,アースサポートハコダテ,訪問入浴介護,北海道函館市富岡町３丁目１番１号,,41.807562500000000,140.752598499999980,0138-44-1900,0138-44-1901,2011001027780,アースサポート株式会社,0171402258,"平日,土曜日,祝日",１２月３０日～１月３日を除く,0,http://www.earthsupport.co.jp,,,,
012025,0171403389,北海道,函館市,アースサポート函館亀田港町,アースサポートハコダテカメダミナトマチ,訪問入浴介護,北海道函館市亀田港町43-18,,41.810152700000000,140.725018700000000,0138-40-8311,0138-40-8310,2011001027780,アースサポート株式会社,0171403389,"平日,土曜日,祝日",,0,http://www.earthsupport.co.jp,,,,
012033,0172001505,北海道,小樽市,アースサポート小樽,アースサポートオタル,訪問入浴介護,北海道小樽市稲穂2丁目3番13号かもめビル,かもめビル,43.197127800000000,140.998722400000020,0134-22-0111,0134-22-0022,2011001027780,アースサポート株式会社,0172001505,"平日,祝日",12月30日～1月3日を除く,0,http://www.earthsupport.co.jp,,,,
012033,0162090203,北海道,小樽市,訪問入浴介護支援　楓,ホウモンニュウヨクカイゴシエン　カエデ,訪問入浴介護,北海道小樽市末広町２番６号,,43.210564437005940,140.995241789549280,0134-55-0862,0134-55-2081,4430001067685,株式会社ＯＺＯＮＥ,0162090203,"平日,土曜日",祝日は利用者の状況などにより要相談。,,,,,,
012041,0172903403,北海道,旭川市,アースサポート旭川,アースサポートアサヒカワ,訪問入浴介護,北海道旭川市神居2条3丁目2番15号,,43.767445900000000,142.331205800000020,0166-61-9100,0166-61-9101,2011001027780,アースサポート株式会社,0172903403,"平日,土曜日,祝日",日曜日・12/30～1/3を除く。,0,http://www.earthsupport.co.jp,,,,
012041,0172903437,北海道,旭川市,株式会社訪問入浴介護サービス黒田,カブシキガイシャホウモンニュウヨクカイゴサービスクロダ,訪問入浴介護,北海道旭川市永山9条14丁目4番24号,,43.797799100000000,142.433118700000020,0166-47-4203,0166-48-4779,2450001006759,株式会社訪問入浴介護サービス黒田,0172903437,"平日,土曜日,祝日",,0,,,,,
012041,0172907941,北海道,旭川市,ツクイ旭川豊岡,ツクイアサヒカワトヨオカ,訪問入浴介護,北海道旭川市豊岡7条8丁目5‐8,,43.763991500000000,142.419224900000000,0166-39-3600,0166-39-3601,1020001136162,株式会社ツクイ,0172907941,"平日,土曜日,日曜日,祝日",,100,https://www.tsukui.net,,,,
012041,0172907180,北海道,旭川市,訪問入浴サービスほっとライフ,ホウモンニュウヨクサービスホットライフ,訪問入浴介護,北海道旭川市豊岡４条２丁目５番２４号,,43.760221159596780,142.394286557060980,0166-56-8217,0166-73-8984,5450001012250,株式会社ルクスト,0172907180,"平日,土曜日,祝日",,0,https://luxt-asahikawa.com,,,,
012050,0173502063,北海道,室蘭市,ＳＯＭＰＯケア　室蘭入江　訪問入浴,ソンポケア　ムロランイリエ　ホウモンニュウヨク,訪問入浴介護,北海道室蘭市入江町1-11KAZU入江ビル　2階,KAZU入江ビル　2階,42.321247000000030,140.972974000000020,0143-48-3711,0143-24-8312,1260001015656,ＳＯＭＰＯケア株式会社,0173502063,"平日,土曜日,祝日",協力医療関係の営業時間、及び居宅サービス計画に応じて、上記以外にも訪問入浴介護の提供を行う場合があるものとしています。,0,https://www.sompocare.com,,,,
012050,0173501545,北海道,室蘭市,アースサポート室蘭,アースサポートムロラン,訪問入浴介護,北海道室蘭市寿町3丁目23番8号,,42.348844199999990,141.036571099999950,0143-47-9900,0143-47-9901,2011001027780,アースサポート株式会社,0173501545,"平日,祝日",土曜日、日曜日、12月30日～1月3日を除く,0,http://www.earthsupport.co.jp,,,,
012068,0174142430,北海道,釧路市,ＳＯＭＰＯケア　釧路愛国　訪問入浴,ソンポケア　クシロ　アイコク　ホウモンニュウヨク,訪問入浴介護,北海道釧路市愛国東3-1-3今野貸事務所Ａ．Ｂ号今野貸事務所Ａ．Ｂ号,今野貸事務所Ａ．Ｂ号,43.006979600000000,144.388506900000040,0154-39-2960,0154-38-5482,1260001015656,ＳＯＭＰＯケア株式会社,0174142430,"平日,土曜日,祝日",,0,https://www.sompo.com,,,,
012068,0174101584,北海道,釧路市,アースサポート釧路,アースサポートクシロ,訪問入浴介護,北海道釧路市新富町9番21号,,42.992470300000000,144.391871000000040,0154-23-2511,0154-23-2522,2011001027780,アースサポート株式会社,0174101584,"平日,土曜日,祝日",日曜日・12月30日～1月3日を除く,0,http://www.earthsupport.co.jp/,,,,
012076,0174602003,北海道,帯広市,株式会社支援,カブシキガイシャシエン,訪問入浴介護,北海道帯広市西１７条南４丁目25番6号,,42.914090500000000,143.168958800000040,08060956055,0155353961,,株式会社支援,0174602003,平日,,0,,,,,
012076,0174601401,北海道,帯広市,アースサポート帯広,アースサポートオビヒロ,訪問入浴介護,北海道帯広市東7条南14丁目１番地13,,42.916778800000000,143.216567899999970,0155-26-0900,0155-26-0901,2011001027780,アースサポート株式会社,0174601401,"平日,祝日",日曜日・12月30日～1月3日は休み,0,http://www.earthsupport.co.jp/,,,,
012076,0174601542,北海道,帯広市,ケアハウスグランドペアレント株式会社,ケアハウスグランドペアレントカブシキカイシャ,訪問入浴介護,北海道帯広市南の森西2丁目4番地15,,42.883991200000000,143.169307399999980,0155-66-9325,0155-66-9327,9460101004977,ケアハウスグランドペアレント株式会社,0174601542,"平日,土曜日,日曜日,祝日",,0,http://www.carehouse-grandparent.com/,,,,
012084,0175013002,北海道,北見市,訪問入浴はな,ホウモンニュウヨクハナ,訪問入浴介護,北海道北見市桜町6丁目1番地２,,43.808722700000000,143.909152700000000,0157-31-0087,0157-25-0187,3460305001883,一般社団法人はな,0175013002,"平日,祝日",,0,,,,,
012084,0175000728,北海道,北見市,ふれやか訪問入浴介護事業所,フレヤカホウモンニュウヨクカイゴジギョウショ,訪問入浴介護,北海道北見市大正56番地52,,43.807924200000000,143.840607999999970,0157-66-1125,0157-66-1126,5460301001101,株式会社ふれやか,0175000728,"平日,土曜日,祝日",電話等により、24時間常時連絡が可能な体制とする。,30,http://www.fureyaka.jp,,,,
012106,0175700731,北海道,岩見沢市,アースサポート岩見沢,アースサポートイワミザワ,訪問入浴介護,北海道岩見沢市北３条西１１丁目１番３２号,,43.205654482381114,141.750700219049120,0126-20-0811,0126-20-0810,2011001027780,アースサポート株式会社,0175700731,"平日,土曜日,祝日",日曜日、12月30日～1月3日,0,http://www.earthsupport.co.jp/,,,,
012106,0175701333,北海道,岩見沢市,和幸ケア,ワコウケア,訪問入浴介護,北海道岩見沢市志文町998-62,,43.171496400000000,141.773901300000000,0126-35-7247,0126-35-7248,1430001092307,和幸ケア株式会社,0175701333,"平日,土曜日,祝日",年末年始休業は年度により日数が異なります。（改行）第３水曜日は稼働状況により営業,0,https://waco-care.com,,,,
012114,0175300607,北海道,網走市,アースサポート網走,アースサポートアバシリ,訪問入浴介護,北海道網走市北5条西4丁目2番1号,,44.025045000000000,144.260360399999970,0152-45-0900,0152-45-0901,2011001027780,アースサポート株式会社,0175300607,"平日,土曜日,祝日",日曜日、12月30日～1月3日を除く,0,http://www.earthsupport.co.jp,,,,
012131,0173601394,北海道,苫小牧市,アースサポート　苫小牧,アースサポート　トマコマイ,訪問入浴介護,北海道苫小牧市緑町１－２２－１５,,42.644556600000000,141.604765499999980,0144-35-9800,0144-35-9801,2011001027780,アースサポート株式会社,0173601394,"平日,祝日",土曜日、日曜日、12月30日～1月3日を除く,0,http://www.earthsupport.co.jp/,,,,
012131,0173601626,北海道,苫小牧市,訪問入浴サービスたいよう,ホウモンニュウヨクサービスタイヨウ,訪問入浴介護,苫小牧市日吉町4丁目1番14号,,42.623886899999995,141.558335299999950,0144-84-6432,0144-84-6433,3430001059106,株式会社たいよう,0173601626,"平日,土曜日,祝日",日曜日・年末年始（１２月３０日から１月３日）を除く,0,http://tomakomai-taiyo.com/,,,,
012131,0173629965,北海道,苫小牧市,指定訪問入浴・介護予防訪問入浴介護事業所　ぽかぽか,シテイホウモンニュウヨク・カイゴヨボウホウモンニュウヨクカイゴジギョウショ　ポカポカ,訪問入浴介護,北海道苫小牧市桜木町3丁目9番11号,,42.627476300000005,141.550156300000000,0144-61-1320,0144-61-1321,8430001088249,株式会社ふわり,0173629965,"平日,土曜日,祝日",,,,,,,
012181,0177200029,北海道,赤平市,赤平市社会福祉協議会　訪問入浴介護事業所,アカビラシシャカイフクシキョウギカイ　ホウモンニュウヨクカイゴジギョウショ,訪問入浴介護,北海道赤平市東大町３丁目４番地,,43.552680700000000,142.057315700000000,0125-32-1015,0125-32-1025,4430005007431,社会福祉法人　赤平市社会福祉協議会,0177200029,"平日,祝日",なし,0,http://www.akabira-shakyo.hs.plala.or.jp/,,,,
012190,0175100098,北海道,紋別市,社会福祉法人紋別市社会福祉協議会,シャカイフクシホウジンモンベツシシャカイフクシキョウギカイ,訪問入浴介護,北海道紋別市幸町７丁目１番１０号紋別市総合福祉センターはーとぴあ２１,紋別市総合福祉センターはーとぴあ２１,44.349009800000000,143.352056800000000,0158-23-2350,0158-26-2299,3450005003405,社会福祉法人紋別市社会福祉協議会,0175100098,平日,なし,0,http://mon-syakyo.com/,,,,
012203,0173200635,北海道,士別市,士別市社協訪問入浴事業所,シベツシシャキョウホウモンニュウヨクジギョウショ,訪問入浴介護,北海道士別市東５条３丁目１－１サポートセンターしべつ内,,44.179299500000000,142.398998200000050,0165-29-6789,0165-22-3019,3450005002761,社会福祉法人士別市社会福祉協議会,0173200635,"平日,祝日",-,30,http://www.shibetsu-shakyo.jp/,,,,
012246,0171100506,北海道,千歳市,アースサポート千歳,アースサポートチトセ,訪問入浴介護,北海道千歳市錦町1-14-1,,42.821065800000000,141.645901399999960,0123-27-7600,0123-27-7601,2011001027780,アースサポート株式会社,0171100506,"平日,土曜日,祝日",水曜日・日曜日・12月30日～1月3日を除く,0,http://www.earthsupport.co.jp/,,,,
012246,0171101223,北海道,千歳市,鶴の恩返し千歳,ツルノオンガエシチトセ,訪問入浴介護,北海道千歳市桜木1丁目4-9,,42.838131200000020,141.614240800000000,0123-25-6573,0123-25-6574,2220001018389,株式会社鶴の恩返し,0171101223,"平日,祝日",,0,,,,,
012254,0177500444,北海道,滝川市,アースサポート滝川,アースサポートタキカワ,訪問入浴介護,北海道滝川市東町８丁目３０６番地１６,,43.563472600000000,141.929198499999980,0125-23-5611,0125-23-5610,2011001027780,アースサポート株式会社,0177500444,"平日,土曜日,祝日",火曜日　日曜日、１２月３０日～１月３日を除く,0,http://www.earthsupport.co.jp/,,,,
012289,0177400686,北海道,深川市,アースサポート深川,アースサポートフカガワ,訪問入浴介護,北海道深川市4条3番4号,,43.716233467752980,142.034624996295150,0164-26-8055,0164-26-8056,2011001027780,アースサポート株式会社,0177400686,"平日,土曜日,祝日",日曜日、１２月３０日～１月３日を除く,0,http://www.earthsupport.co.jp/,,,,
012319,0171200546,北海道,恵庭市,訪問入浴ば～す,ホウモンニュウヨクバース,訪問入浴介護,北海道恵庭市戸磯595番8,,42.866053300000000,141.594425399999980,0123-29-4268,0123-32-1136,9430001044291,株式会社プラッツ,0171200546,平日,,8,,,,,
013323,0171500150,北海道,福島町,社会福祉法人福島町社会福祉協議会　指定訪問入浴介護事業所,シャカイフクホウジンフクシマチョウシャカイフクシキョウギカイ　シテイホウモンニュウヨクカイゴジギョウショ,訪問入浴介護,北海道松前郡福島町字三岳32-3福島町福祉センター内,福島町福祉センター内,41.486024400000000,140.255183999999980,0139-47-2284,0139-47-5081,4440005000848,社会福祉法人福島町社会福祉協議会,0171500150,"平日,祝日",土日、12月31日から1月5日定休日です。,0,http://www.shakyo.or.jp/hp/40/,,,,
014061,0172500167,北海道,古平町,グッドケア,グッドケア,訪問入浴介護,北海道古平郡古平町大字歌棄町204番地9　れい明の里介護支援センター内,,43.248753792790030,140.661371289410450,0135-42-4163,0135-42-3801,8430005008236,社会福祉法人古平福祉会,0172500167,平日,,0,http://www.reimeinosato.jp/,,,,
015440,0175200054,北海道,津別町,社会福祉法人津別町社会福祉協議会　訪問入浴介護事業所,シャカイフクシホウジンツベツチョウシャカイフクシキョウギカイ　ホウモンニュウヨクカイゴジギョウショ,訪問入浴介護,北海道網走郡津別町字新町1番地5,,43.708689509678780,144.023336139984850,0152-76-1161,0152-75-5043,8460305000971,社会福祉法人津別町社会福祉協議会,0175200054,平日,営業日　月、水、金曜日,0,http://www.protech-web.co.jp/homepage/tsubetsu/,,,,
016080,0173800020,北海道,様似町,さまに訪問入浴サービス事業所,サマニホウモンニュウヨクサービスジギョウショ,訪問入浴介護,北海道様似郡様似町大通２丁目98番地の２,,42.127005500000000,142.936363300000040,0146-36-4505,0146-36-5638,,社会福祉法人様似町社会福祉協議会,0173800020,平日,-,0,,,,,
016314,0174700146,北海道,音更町,在宅老人ケアセンターらんらん訪問入浴介護事業所,ザイタクロウジンケアセンターランランホウモンニュウヨクカイゴジギョウショ,訪問入浴介護,北海道河東郡音更町柏寿台１番地５,,43.003808776528320,143.193308964464680,0155-32-4955,0155-67-7634,8460105000453,社会福祉法人音更町柏寿協会,0174700146,平日,なし,2,http://www.hakuju.or.jp,,,,
016918,0154280010,北海道,別海町,別海町訪問入浴介護事業所,ベツカイチョウホウモンニュウヨクカイゴジギョウショ,訪問入浴介護,北海道野付郡別海町別海西本町103番地3別海町老人保健施設すこやか内,別海町老人保健施設すこやか内,43.390968300000000,145.123159800000000,0153-75-3226,0153-75-3007,9000020016918,別海町,0154280010,"平日,祝日",なし,,https://betsukai.jp/shisetsu/fukushi/sukoyaka/houmonnyuuyokukaigo/,,,,
016926,0174200030,北海道,中標津町,中標津町社協ケアサービスセンター,ナカシベツチョウシャキョウケアサービスセンター,訪問入浴介護,北海道標津郡中標津町西10条南9丁目1,,43.537052800000000,144.971586800000070,0153-79-1231,0153-79-1233,4462505000020,社会福祉法人中標津町社会福祉協議会,0174200030,平日,祝日は定休日だが、利用者の利便を考慮し対応している,,http://www.plat.or.jp/,,,,
022012,0270100340,青森県,青森市,まちだ訪問入浴サービス,マチダホウモンニュウヨクサービス,訪問入浴介護,青森市油川大浜１４２,,40.855138800000000,140.695111900000030,017-787-1540,017-787-1541,4420005000701,医療法人　白鴎会,0270100340,"平日,土曜日",特に無し,0,koujin1@cada.ocn.ne.jp,,,,
022012,0270103914,青森県,青森市,アースサポート新青森,アースサポートシンアオモリ,訪問入浴介護,青森県青森市大字三内字沢部258番13号,,40.816618600000000,140.697376599999980,017-766-8411,017-766-8401,2011001027780,アースサポート株式会社,0270103914,"平日,土曜日,祝日",12月30日～1月3日は休み,0,http://www.earthsupport.co.jp,,,,
022012,0270106016,青森県,青森市,アースサポート青森浪岡,アースサポートアオモリナミオカ,訪問入浴介護,青森県青森市浪岡大字浪岡字若松88番3号間山ハイツ,間山ハイツ,40.709549000000000,140.592685200000000,0172-69-1911,0172-69-1912,2011001027780,アースサポート株式会社,0270106016,"平日,土曜日,祝日",日曜日以外の祝日は営業しています。,48,http://www.earthsupport.co.jp,,,,
022012,0270106396,青森県,青森市,アースサポート青森東,アースサポートアオモリヒガシ,訪問入浴介護,青森県青森市原別２丁目２番１号,,40.837486000000000,140.803949200000000,017-736-9811,017-736-9812,2011001027780,アースサポート株式会社,0270106396,"平日,土曜日,祝日",特になし,0,http://www.earthsupport.co.jp,,,,
022012,0270101017,青森県,青森市,株式会社　青森入浴ケアサービス,カブシキガイシャ　アオモリニュウヨクケアサービス,訪問入浴介護,青森市青柳2丁目4-1,,40.825883000000000,140.756236299999950,017-721-1010,017-721-1011,5420001002353,株式会社　青森入浴ケアサービス,0270101017,"平日,土曜日,祝日",但し、電話は転送にて24時間対応としております。,120,www.jomon.ne.jp/~nyuyoku/,,,,
022021,0270200058,青森県,弘前市,弘前特別養護老人ホーム介護保険サービス事業センター,ヒロサキトクベツヨウゴロウジンホームカイゴホケンサービスジギョウセンター,訪問入浴介護,弘前市自由ヶ丘５－５－３,,40.582212100000000,140.436733499999940,0172-88-1433,0172-88-1432,8420005004376,社会福祉法人津軽富士見会法人,0270200058,"平日,土曜日,祝日",電話等により２４時間常時連絡が可能な体制とし、必要に応じて午前７時～午後８時までサービスを提供します。,6,http://tsugarufujimikai.com,,,,
022021,0270200272,青森県,弘前市,バンドーウエルフェアグループ株式会社　弘前事業所,バンドーウエルフェアグループカブシキガイシャヒロサキジギョウショ,訪問入浴介護,青森県弘前市西城北２丁目6-3,,40.618561600000000,140.471590399999970,0172-37-0052,0172-37-0326,3420001009342,バンドーウエルフェアグループ株式会社,0270200272,"平日,土曜日,祝日",,0,http://www.bwfg.co.jp/,,,,
022021,0270202583,青森県,弘前市,アースサポート弘前,アースサポートヒロサキ,訪問入浴介護,青森県弘前市小比内四丁目5-15,,40.588021200000000,140.495482000000040,0172-26-3211,0172-26-3210,2011001027780,アースサポート株式会社,0270202583,"平日,土曜日,祝日",12月30日～1月3日除く,0,http://www.earthsupport.co.jp,,,,
022039,0270300205,青森県,八戸市,社会福祉法人　八戸市社会福祉事業団,シャカイフクシホウジン　ハチノヘシシャカイフクシジギョウダン,訪問入浴介護,青森県八戸市根城８丁目８番１５５号八戸市総合福祉会館５階,八戸市総合福祉会館５階,40.503442900000000,141.465085000000040,0178-41-1322,0178-46-3952,4420005002961,社会福祉法人八戸市社会福祉事業団,0270300205,"平日,土曜日,祝日",なし,0,http://www.hsfj.or.jp/,,,,
022039,0270300783,青森県,八戸市,はくじゅ訪問入浴介護事業所,ハクジュホウモンニュウヨクカイゴジギョウショ,訪問入浴介護,青森県八戸市大字河原木字北沼22-39,,40.552375800000010,141.484951700000040,0178-21-2033,0178-21-2272,1420005002667,公益財団法人シルバーリハビリテーション協会,0270300783,平日,なし,20,http://sg-hakuju.com,,,,
022039,0270301955,青森県,八戸市,アースサポート八戸,アースサポートハチノヘ,訪問入浴介護,青森県八戸市長根4丁目7-14,,40.517046414478360,141.478222354507350,0178-24-4900,0178-24-2911,2011001027780,アースサポート株式会社,0270301955,"平日,土曜日,祝日",日曜日・12月30日～1月3日を除く,0,http://www.earthsupport.co.jp,,,,
022039,0270303035,青森県,八戸市,ビリーブ訪問入浴八戸中央,ビリーブホウモンニュウヨクハチノヘチュウオウ,訪問入浴介護,類家5丁目27番１号,,40.505927773714740,141.510439190713750,0178-20-0597,0178-71-2612,1420001005467,株式会社ビリーブケアサポート,0270303035,"平日,土曜日,祝日",,0,http://believecare.jp,,,,
022039,0270303340,青森県,八戸市,ミライフルホームバスサービス八戸,ミライフルホームバスサービスハチノヘ,訪問入浴介護,青森県八戸市南類家2丁目17番19号,,40.501454900000000,141.504102699999980,0178-51-8577,0178-38-6320,6420001014397,株式会社ミライフル,0270303340,"平日,祝日",,20,http://melife1.com/,,,,
022063,0250680055,青森県,十和田市,介護老人保健施設ハートランド,カイゴロウジンホケンシセツハートランド,訪問入浴介護,青森県十和田市大字相坂字高清水78－450,,40.621685371727700,141.255061739148000,0176-25-2590,0176-25-0033,5420005002721,医療法人仁泉会,0250680055,"平日,祝日",平日の祝祭日（数日除く）サービス提供致します。（改行）（改行）午前8:30～12:30　午後13:30～17:30までの間において（改行）概ね5～60分前後のサービス提供時間となります。,30,https://www.sg-heart.or.jp/,,,,
022063,0270600950,青森県,十和田市,アースサポート十和田,アースサポートトワダ,訪問入浴介護,青森県十和田市穂並町16-46,,40.600332400000000,141.225178000000030,0176-25-5151,0176-25-5152,2011001027780,アースサポート株式会社,0270600950,"平日,土曜日,祝日",12月30日～1月3日は除く,0,http://www.earthsupport.co.jp,,,,
022071,0270700388,青森県,三沢市,訪問入浴サービスステーション青空,ホウモンニュウヨクサービスステーションアオゾラ,訪問入浴介護,青森県三沢市栄町三丁目１２５－１栄町コラボケアセンター,栄町コラボケアセンター,40.670751300000000,141.361213600000040,0176-50-1102,0176-53-7670,8420005006018,社会福祉法人楽晴会,0270700388,"平日,土曜日,祝日",上記時間以外での希望については相談を伺います。,30,http://www.rakuseikai.or.jp/,,,,
022080,0270800451,青森県,むつ市,バンドーウエルフェアグループ株式会社　むつ事業所,バンドーウエルフェアグループカブシキガイシャ　ムツジギョウショ,訪問入浴介護,青森県むつ市新町３２－１５,,41.289316300000000,141.213912700000040,0175-23-9626,0175-23-9627,3420001009342,バンドーウエルフェアグループ株式会社,0270800451,"平日,土曜日,祝日",,0,http://www.bwfg.co.jp/,,,,
022080,0270800592,青森県,むつ市,アースサポートむつ,アースサポートムツ,訪問入浴介護,青森県むつ市小川町1丁目8-361Ｆ-Ｂ,1Ｆ-Ｂ,41.293007400000000,141.206790700000060,0175-23-4300,0175-23-4301,2011001027780,アースサポート株式会社,0270800592,"平日,土曜日,祝日",定休日は日曜日、12/30～1/3は休み,0,http://www.earthsupport.co.jp,,,,
023019,0272000217,青森県,平内町,平内町社協指定居宅サービス事業所,ヒラナイマチシャキョウシテイキョタクサービスジギョウショ,訪問入浴介護,青森県東津軽郡平内町大字小湊字小湊83-2,,40.928277800000000,140.956003099999970,017-755-5333,017-755-4107,7420005001036,社会福祉法人平内町社会福祉協議会,0272000217,平日,※連続する祝日及び年末年始利用者の希望状況等により稼働する場合もある。,0,http://hiranaishakyo.jp,,,,
024023,0272502139,青森県,七戸町,ゆう訪問入浴,ユウホウモンニュウヨク,訪問入浴介護,青森県上北郡七戸町字道ノ上118-1,,40.751396199999990,141.151674100000040,0176-68-4780,0176-68-4714,4420001011867,株式会社ゆう,0272502139,"平日,祝日",土日以外の祝日は通常通り訪問いたします。,0,,,,,
024236,0272600271,青森県,大間町,くろまつ訪問入浴事業所,クロマツホウモンニュウヨクジギョウショ,訪問入浴介護,青森県下北郡大間町大字大間字大間平20-78,,41.526356900000000,140.927384100000040,0175-37-5111,0175-37-5115,6420005006556,社会福祉法人大間町社会福祉協議会,0272600271,"平日,祝日",,0,,,,,
032018,0370107427,岩手県,盛岡市,ツクイ盛岡,ツクイモリオカ,訪問入浴介護,岩手県盛岡市東黒石野2丁目1番5号,,39.748358800000000,141.152812000000000,019-661-1266,019-665-3212,1020001136162,株式会社ツクイ,0370107427,"平日,土曜日,日曜日,祝日",,0,https://www.tsukui.net/home-care/2031/,,,,
032018,0370101933,岩手県,盛岡市,アースサポート盛岡,アースサポートモリオカ,訪問入浴介護,岩手県盛岡市厨川1丁目16番3号,,39.744753500000000,141.130384700000040,019-645-4700,019-645-5311,2011001027780,アースサポート株式会社,0370101933,"平日,土曜日,祝日",日曜日・12月30日～1月3日を除く,0,http://www.earthsupport.co.jp,,,,
032026,0370200081,岩手県,宮古市,宮古市社会福祉協議会訪問入浴サービスセンター,ミヤコシシャカイフクシキョウギカイホウモンニュウヨクサービスセンター,訪問入浴介護,岩手県宮古市小山田二丁目9番20号,,39.634959400000000,141.939943900000000,0193-64-5050,0193-64-5055,5400005004307,社会福祉法人　宮古市社会福祉協議会,0370200081,平日,(1)サービス利用、体調不良等による利用の取り消し、利用日の変更　　（改行）(2)入浴１時間位前には食事を済ませる。　　　　　　　　　　　　　（改行）(3)室内温度２０℃くらいに保つ事　　　　　　　　　　　　　　　　（改行）(4)入浴後は水分補給をする。,0,http://www.miyako-shakyo.or.jp,,,,
032026,0370200115,岩手県,宮古市,指定訪問入浴介護事業所サンホームみやこ,シテイホウモンニュウヨクカイゴジギョウショサンホームミヤコ,訪問入浴介護,岩手県宮古市崎鍬ヶ崎第4地割1番地20,,39.659792800000000,141.951620600000070,0193-62-7011,0193-62-7012,4400005004142,社会福祉法人若竹会,0370200115,"平日,祝日",,0,http://www.wakatakekai.or.jp/,,,,
032034,0370300055,岩手県,大船渡市,大船渡市社会福祉協議会指定訪問入浴介護事業所,オオフナトシシャカイフクシキョウギカイシテイホウモンニュウヨクカイゴジギョウショ,訪問入浴介護,岩手県大船渡市盛町字下舘下１４－１大船渡市総合福祉センター,大船渡市総合福祉センター,39.079193200000000,141.712077000000020,0192-27-1003,0192-21-3135,6402705000088,社会福祉法人大船渡市社会福祉協議会,0370300055,"平日,土曜日,日曜日,祝日",,0,,,,,
032051,0370501223,岩手県,花巻市,アースサポート花巻,アースサポートハナマキ,訪問入浴介護,岩手県花巻市不動町2丁目1番地8,,39.376713200000000,141.111404799999940,0198-22-3111,0198-22-3112,2011001027780,アースサポート株式会社,0370501223,"平日,土曜日,祝日",定休日は日曜日、12/30-1/3,0,http://www.earthsupport.co.jp,,,,
032051,0370501983,岩手県,花巻市,アサヒサンクリーン在宅介護センター花巻,アサヒサンクリーンザイタクカイゴセンターハナマキ,訪問入浴介護,岩手県花巻市西大通り一丁目１０番９号SARACA　B号室,SARACA　B号室,39.390993700000000,141.110126300000000,050-3508-7733,0198-41-8863,5080001018392,アサヒサンクリーン株式会社,0370501983,"平日,祝日",上記以外のサービス提供時間については相談可能です,0,https://www.asahi-sun-clean.co.jp/,,,,
032051,0370500167,岩手県,花巻市,花巻市社会福祉協議会指定矢沢訪問入浴介護事業所,ハナマキシシャカイフクシキョウギカイシテイヤサワホウモンニュウヨクカイゴジギョウショ,訪問入浴介護,岩手県花巻市高松第３地割85番地1矢沢地域福祉センター,矢沢地域福祉センター,39.391390300000000,141.159252499999980,0198-31-2122,0198-31-2332,8400005003347,社会福祉法人花巻市社会福祉協議会,0370500167,"平日,祝日",,0,http://hanamaki-syakyo.or.jp/,,,,
032051,0372300079,岩手県,花巻市,花巻市社会福祉協議会指定大迫訪問入浴介護事業所,ハナマキシシャカイフクシキョウギカイシテイオオハサマホウモンニュウヨクカイゴジギョウショ,訪問入浴介護,岩手県花巻市大迫町大迫第13地割23番地1,,39.471394500000000,141.279148200000000,0198-48-4111,0198-48-4085,8400005003347,社会福祉法人花巻市社会福祉協議会,0372300079,"平日,祝日",,0,,,,,
032051,0370500274,岩手県,花巻市,アイリス花巻指定訪問入浴介護事業所,アイリスハナマキシテイホウモンニュウヨクカイゴジギョウショ,訪問入浴介護,岩手県花巻市南万丁目970番地2,,39.391280500000000,141.098708300000000,0198-24-7564,0198-24-9969,9400005002959,社会福祉法人大谷会,0370500274,"平日,土曜日",なし,5,http://iris-hanamaki.jp,,,,
032085,0370800427,岩手県,遠野市,かなえケアステーション,カナエケアステーション,訪問入浴介護,岩手県遠野市穀町１３－１,,39.329207100000000,141.532766900000070,0198-68-3027,0198-68-3023,5400001009029,ケア・グラント株式会社,0370800427,"平日,祝日",,25,https://www.care-grant.co.jp/,,,,
032085,0370800054,岩手県,遠野市,ヘルパーステーション薬研淵,ヘルパーステーションヤケンブチ,訪問入浴介護,岩手県遠野市松崎町白岩字薬研淵1-3,,39.343449900000000,141.536671500000000,0198-63-1233,0198-62-1677,6400005003919,社会福祉法人遠野市社会福祉協議会,0370800054,"平日,土曜日,祝日",12/31から1/3までは休業します。ただし、希望があれば対応します。,0,http://www.tono-shakyo.jp/,,,,
032093,0370901084,岩手県,一関市,アースサポート一関,アースサポートイチノセキ,訪問入浴介護,岩手県一関市上大槻街4-23,,38.930188300000000,141.138485599999970,0191-21-1100,0191-21-1800,2011001027780,アースサポート株式会社,0370901084,"平日,土曜日,祝日",日曜日及び、12月30日～1月3日を除く,0,http://www.earthsupport.co.jp,,,,
032093,0370901761,岩手県,一関市,フォレスト訪問入浴サービス東磐井,フォレストホウモンニュウヨクサービスヒガシイワイ,訪問入浴介護,岩手県一関市萩荘字打ノ目255-1,,38.918505527389975,141.095882811482060,0191-32-1218,0191-32-1216,1400502000605,フォレスト医療介護サービス株式会社,0370901761,"平日,祝日",最終入浴開始時間　16：15～（改行）定休日　毎週土曜日、日曜日（改行）その他　ゴールデンウィーク休暇　5/3～5/5（改行）　　　　夏季休暇　8/13～8/16（改行）　　　　冬期休暇　12/31～1/4,0,,,,,
032093,0372700260,岩手県,一関市,訪問入浴センター東山,ホウモンニュウヨクセンターヒガシヤマ,訪問入浴介護,岩手県一関市東山町長坂字西本町139番地1,,38.995507100000000,141.252153000000020,0191-47-3238,0191-47-3236,7400505000621,社会福祉法人一関市社会福祉協議会,0372700260,"平日,祝日",令和６年２月現在、毎週月曜日、火曜日、木曜日にサービス提供を行っています。,30,http://www.ichinoseki-shakyo.com/,,,,
032093,0370901811,岩手県,一関市,アサヒサンクリーン在宅介護センター一関,アサヒサンクリーンザイタクカイゴセンターイチノセキ,訪問入浴介護,岩手県一関市山目字十二神122-3,,38.928369697452396,141.116081272885000,050-3317-6775,0191-34-5007,5080001018392,アサヒサンクリーン株式会社,0370901811,"平日,祝日",上記サービス提供時間以外はご相談下さい。,84,https://www.asahi-sun-clean.co.jp/,,,,
032093,0370901993,岩手県,一関市,ツクイ一関,ツクイイチノセキ,訪問入浴介護,岩手県一関市東五代6番30号,,38.940769700000000,141.130752000000000,0191-31-6887,0191-31-6888,1020001136162,株式会社ツクイ,0370901993,"平日,土曜日,祝日",,0,http://www.tsukui.net,,,,
032093,0370902025,岩手県,一関市,訪問入浴春夏秋冬,ホウモンニュウヨクシュンカシュウトウ,訪問入浴介護,岩手県一関市千厩町千厩字下駒場294番地18,,38.923944700000000,141.344161900000000,0191-34-4810,0191-34-4811,9370501001047,株式会社春夏秋冬,0370902025,"平日,祝日",（12月31日から1月3日）は除く。,0,https://www.1goitiyu.com,,,,
032107,0371000092,岩手県,陸前高田市,高寿園指定訪問入浴介護事業所,コウジュエンシテイホウモンニュウヨクカイゴジギョウショ,訪問入浴介護,岩手県陸前高田市高田町字東和野６７サポートセンター内,サポートセンター内,39.022172900000000,141.639076899999960,0192-54-4777,0192-54-2955,9402705000201,社会福祉法人高寿会,0371000092,"平日,祝日",,0,,,,,
032115,0371100322,岩手県,釜石市,いきいき指定訪問入浴介護センター,イキイキシテイホウモンニュウヨクカイゴセンター,訪問入浴介護,岩手県釜石市鵜住居町2-20-1いきいき福祉センター,いきいき福祉センター,39.344924374373880,141.847354771028080,0193-29-1886,0193-29-1882,8400005004519,社会福祉法人愛恵会,0371100322,"平日,祝日",土、日は休み（改行）警報・注意報発令時は休み,1,,,,,
032131,0371300088,岩手県,二戸市,二戸市社会福祉協議会訪問入浴介護事業所,ニノヘシシャカイフクシキョウギカイホウモンニュウヨクカイゴジギョウショ,訪問入浴介護,岩手県二戸市仁左平字横手２番地３,,40.303522500000000,141.308742899999970,0195-23-5073,0195-25-4955,6400005004792,社会福祉法人二戸市社会福祉協議会,0371300088,"平日,祝日",,0,http://ninohe-shakyo.jp,,,,
032131,0373200146,岩手県,二戸市,浄法寺訪問入浴介護事業所,ジョウボウジホウモンニュウヨクカイゴジギョウショ,訪問入浴介護,岩手県二戸市浄法寺町小池３番地ほほえみセンター,ほほえみセンター,40.184441500000000,141.157453400000000,0195-38-3061,0195-39-1031,6400005004792,社会福祉法人二戸市社会福祉協議会,0373200146,"平日,土曜日,日曜日,祝日",,0,http://ninohe-shakyo.jp/,,,,
032158,0371500331,岩手県,奥州市,アースサポート奥州,アースサポートオウシュウ,訪問入浴介護,岩手県奥州市水沢後田16－4,,39.143303400000000,141.122645299999930,0197-25-4111,0197-25-4110,2011001027780,アースサポート株式会社,0371500331,"平日,土曜日,祝日",日曜日及び12月30日～1月3日,0,http://www.earthsupport.co.jp,,,,
032158,0372500165,岩手県,奥州市,やまゆり荘訪問入浴介護事業所,ヤマユリソウホウモンニュウヨクカイゴジギョウショ,訪問入浴介護,岩手県奥州市胆沢南都田字加賀谷地416,,39.116799815847010,141.072421898182260,0197-46-5111,0197-46-5112,5400605000399,社会福祉法人奥州いさわ会,0372500165,"平日,土曜日,日曜日,祝日",,0,http://www.oshuisawakai.iwate.jp,,,,
032166,0372100735,岩手県,滝沢市,社会福祉法人康済会訪問入浴介護サービス事業所,シャカイフクシホウジンコウサイカイホウモンニュウヨクカイゴサアビスジギョウショ,訪問入浴介護,岩手県滝沢市大釜竹鼻163番地14,,39.703132539474076,141.072118478637660,019-687-6560,019-687-6561,1400005002330,社会福祉法人康済会,0372100735,平日,,0,http://www.uguisu.or.jp/,,,,
033227,0372200212,岩手県,矢巾町,訪問入浴介護やはば,ホウモンニュウヨクカイゴヤハバ,訪問入浴介護,岩手県紫波郡矢巾町大字又兵ェ新田第5地割335番地医療福祉多機能ビル　　ケアセンター南昌,医療福祉多機能ビル　　ケアセンター南昌,39.613491928200270,141.146942404615740,019-698-1385,019-611-2071,9400005002406,医療法人社団帰厚堂,0372200212,平日,,0,https://kikodo.or.jp,,,,
033669,0372400135,岩手県,西和賀町,訪問入浴にしわが,ホウモンニュウヨクニシワガ,訪問入浴介護,岩手県和賀郡西和賀町川尻40地割73番地82,,39.314054200000000,140.775446999999980,0197-84-2161,0197-82-3572,2400005003699,社会福祉法人西和賀町社会福祉協議会,0372400135,"平日,土曜日,日曜日,祝日",,0,http://nishi-shakyo.net/,,,,
034410,0372800052,岩手県,住田町,住田町社会福祉協議会指定訪問入浴介護事業所,スミタチョウシャカイフクシキョウギカイシテイホウモンニュウヨクジギョウショ,訪問入浴介護,岩手県気仙郡住田町上有住字和田野12-5,,39.194481245189990,141.599721044319150,0192-48-3300,0192-48-3301,1402705000266,社会福祉法人住田町社会福祉協議会,0372800052,"平日,祝日",利用者、介護者の体調や都合に配慮し、サービス時間の変更を適宜行うことができます。,0,http://sumita-shakyo.jp/,,,,
034614,0372900126,岩手県,大槌町,大槌町社協指定訪問入浴介護事業所,オオツチチョウシャキョウシテイホウモンニュウヨクカイゴジギョウショ,訪問入浴介護,岩手県上閉伊郡大槌町大槌第12地割71番2大槌町社会福祉協議会介護サービスステーション,大槌町社会福祉協議会介護サービスステーション,39.381093361587660,141.885123370287710,0193-41-1145,0193-41-1066,3400005004390,社会福祉法人大槌町社会福祉協議会,0372900126,"平日,土曜日,祝日",悪天候の場合は営業を中止する事があります。,0,https://www.otsuchi-shakyo.jp/,,,,
034827,0373000199,岩手県,山田町,山田町社協指定訪問入浴介護事業所,ヤマダマチシャキョウシテイホウモンニュウヨクカイゴジギョウショ,訪問入浴介護,岩手県下閉伊郡山田町山田第１５地割８２番地２,,39.474797382025230,141.936573642761230,0193-82-4000,0193-82-5670,2400005004169,社会福祉法人山田町社会福祉協議会,0373000199,"平日,土曜日,祝日",,0,http://www.yamada-shakyo.or.jp,,,,
034827,0373000355,岩手県,山田町,有限会社あすなろ指定訪問入浴介護事業所,ユウゲンガイシャアスナロシテイホウモンニュウヨクカイゴジギョウショ,訪問入浴介護,岩手県下閉伊郡山田町長崎4-14-1,,39.462065400000000,141.944656200000050,0193-81-1126,0193-81-1136,1400002010930,有限会社あすなろ,0373000355,"平日,祝日",土曜、日曜、年末年始は原則休み、ただしサービス計画で指定された時間は営業。,0,,,,,
034835,0373000421,岩手県,岩泉町,岩泉町社協指定訪問入浴介護事業所,イワイズミチョウシャキョウシテイホウモンニュウヨクカイゴジギョウショ,訪問入浴介護,岩手県下閉伊郡岩泉町岩泉字森の越４－１４,,39.847236200000000,141.800200000000020,0194-22-3318,0194-31-1033,9400005004253,社会福祉法人岩泉町社会福祉協議会,0373000421,平日,,0,http://iwaizumi-shakyo.or.jp,,,,
041017,0475101283,宮城県,仙台市青葉区,アースサポート仙台青葉,アースサポートセンダイアオバ,訪問入浴介護,宮城県仙台市青葉区旭ヶ丘2丁目29-1,,38.293298700000000,140.888154699999970,022-728-6230,022-728-6240,2011001027780,アースサポート株式会社,0475101283,"平日,土曜日,祝日",日曜日、12/30～1/3はお休み,0,http://www.earthsupport.co.jp,,,,
041017,0475102604,宮城県,仙台市青葉区,セントケア仙台,セントケアセンダイ,訪問入浴介護,宮城県仙台市青葉区北根黒松6-15,,38.305783100000000,140.880379700000050,022-273-2964,022-273-3790,3370001014868,セントケア東北株式会社,0475102604,"平日,土曜日,祝日",,15,http://www.saint-care.com/,,,,
041017,0475103354,宮城県,仙台市青葉区,アスケア訪問入浴　青葉,アスケアホウモンニュウヨク　アオバ,訪問入浴介護,宮城県仙台市青葉区木町9番15号,,38.278230300000000,140.861064299999950,050-3317-6790,022-728-8134,5080001018392,株式会社ＡＳＣａｒｅ,0475103354,"平日,祝日",,10,http://www.aoba-ny@as-care.co.jp,,,,
041017,0475100491,宮城県,仙台市青葉区,株式会社ＡＳＣａｒｅ東北支店,カブシキガイシャアスケアトウホクシテン,訪問入浴介護,宮城県仙台市青葉区落合4丁目2-22,,38.274972699999985,140.780218900000020,022-392-1511,022-392-3311,5080001018392,株式会社ＡＳＣａｒｅ,0475100491,"平日,土曜日,祝日",祝日は通常営業しております。,0,http://www.asahi-sun-clean.co.jp/,,,,
041025,0475203188,宮城県,仙台市宮城野区,アースサポート仙台高砂,アースサポートセンダイタカサゴ,訪問入浴介護,宮城県仙台市宮城野区福室3丁目２４番１８号,,38.276087000000000,140.971566000000000,022-388-6200,022-387-1301,2011001027780,アースサポート株式会社,0475203188,"平日,土曜日,祝日",日・12/30-1/3休み,0,https://www.earthsupport.co.jp/,,,,
041025,0475202099,宮城県,仙台市宮城野区,アスケア訪問入浴　宮城野,アスケアホウモンニュウヨク　ミヤギノ,訪問入浴介護,仙台市宮城野区新田3-27-20メイユール101,メイユール101,38.279869700000000,140.928595900000000,050-3317-6795,022-782-2376,5080001018392,株式会社ＡＳＣａｒｅ,0475202099,"平日,祝日",上記以外のサービス提供時間についてはご相談ください,0,http://www.asahi-sun-clean.co.jp,,,,
041033,0475302840,宮城県,仙台市若林区,セントケア若林訪問入浴,セントケアワカバヤシホウモンニュウヨク,訪問入浴介護,宮城県仙台市若林区若林7丁目1-5,,38.227717200000000,140.904049300000000,022-781-1038,022-282-6033,3370001014868,セントケア東北株式会社,0475302840,"平日,土曜日,日曜日,祝日",特になし。,0,https://www.saint-care.com/,,,,
041041,0475404869,宮城県,仙台市太白区,ツクイ太白,ツクイタイハク,訪問入浴介護,宮城県仙台市太白区泉崎1-29-7,,38.219745800000000,140.870011900000000,022-244-8808,022-307-4822,1020001136162,株式会社ツクイ,0475404869,"平日,土曜日,祝日",,108,,,,,
041041,0475400438,宮城県,仙台市太白区,アースサポート仙台,アースサポートセンダイ,訪問入浴介護,宮城県仙台市太白区向山４－１９－１０,,38.244120400000000,140.879155699999950,022-215-2391,022-215-2392,2011001027780,アースサポート株式会社,0475400438,"平日,土曜日,祝日",,0,http://www.earthsupport.co.jp/,,,,
041041,0475400446,宮城県,仙台市太白区,ニチイケアセンター　南仙台,ニチイケアセンター　ミナミセンダイ,訪問入浴介護,宮城県仙台市太白区柳生6丁目3-1,,38.196386100000000,140.862450500000020,022-306-0615,022-306-0263,3010001025868,株式会社　ニチイ学館,0475400446,"平日,祝日",但し、営業日以外でも居宅サ-ビス計画によりサ－ビスの提供を行う。,0,http://www.nichiigakkan.co.jp,,,,
041041,0475401980,宮城県,仙台市太白区,アスケア　訪問入浴太白,アスケアホウモンニュウヨクタイハク,訪問入浴介護,宮城県仙台市太白区富沢１-8-10ロジュマンⅡD棟１０５号,ロジュマンⅡD棟１０５号,38.217556399999985,140.866726999999970,050-3317-6797,022-243-3735,5080001018392,株式会社ＡＳＣａｒｅ,0475401980,"平日,祝日",,0,http://www.asahi-sun-clean.co.jp/,,,,
041050,0475502027,宮城県,仙台市泉区,アースサポート仙台泉,アースサポートセンダイイズミ,訪問入浴介護,宮城県仙台市泉区七北田字古内130番地,,38.326533100000000,140.870974299999940,022-374-9422,022-374-1901,2011001027780,アースサポート株式会社,0475502027,"平日,土曜日,祝日",定休日は日曜日、12月30日～1月3日,0,http://www.earthsupport.co.jp/,,,,
041050,0475502290,宮城県,仙台市泉区,セントケア南中山,セントケアミナミナカヤマ,訪問入浴介護,仙台市泉区南中山2-25-2,,38.307839500000000,140.825982399999930,022-379-1022,022-348-2750,3370001014868,セントケア東北株式会社,0475502290,"平日,土曜日,祝日",,0,http://www.saint-care-tm.com,,,,
041050,0475501656,宮城県,仙台市泉区,アスケア訪問入浴　泉,アスケアホウモンニュウヨク　イズミ,訪問入浴介護,宮城県仙台市泉区将監1-13-1,,38.329522000000000,140.884403400000000,050-3317-6798,022-374-1138,5080001018392,株式会社ＡＳＣａｒｅ,0475501656,"平日,祝日",,0,http://www.asahi-sun-clean.co.jp/,,,,
042021,0470200106,宮城県,石巻市,ぱんぷきん介護センター　本社事業本部,パンプキンカイゴセンター　ホンシャジギョウホンブ,訪問入浴介護,宮城県石巻市丸井戸三丁目３番８号,,38.447164099999990,141.274801799999980,0225-96-7845,0225-93-4871,5370301002240,ぱんぷきん株式会社,0470200106,"平日,土曜日,祝日",ただし、休日であっても必要な場合は、サービス業務を行います。,0,http://care-net.biz/04/pumpkin/,,,,
042021,0470201724,宮城県,石巻市,アースサポート石巻,アースサポートイシノマキ,訪問入浴介護,宮城県石巻市蛇田字下谷地1番地6,,38.438820700000000,141.276940800000030,0225-23-6911,0225-23-6912,2011001027780,アースサポート株式会社,0470201724,"平日,土曜日,祝日",,0,http://www.earthsupport.co.jp,,,,
042021,0470200379,宮城県,石巻市,株式会社ＡＳＣａｒｅ　アスケア訪問入浴石巻,カブシキガイシャ　アスケアホウモンニュウヨクイシノマキ,訪問入浴介護,宮城県石巻市中里３丁目５－５,,38.441870900000000,141.297822600000020,0225-98-4511,0225-92-8522,5080001018392,株式会社ＡＳＣａｒｅ,0470200379,"平日,祝日",上記以外のサービス提供時間については相談可能です,0,http://www.asahi-sun-clean.co.jp/,,,,
042030,0470300237,宮城県,塩竈市,アースサポート塩釜,アースサポートシオガマ,訪問入浴介護,宮城県塩釜市旭町18番13号,,38.313195900000000,141.023474399999940,022-362-9611,022-362-9610,2011001027780,アースサポート株式会社,0470300237,"平日,土曜日,祝日",,0,http://www.earthsupport.co.jp,,,,
042056,0470500646,宮城県,気仙沼市,広域介護サービス気仙沼,コウイキカイゴサービスケセンヌマ,訪問入浴介護,宮城県気仙沼市松川前１２１,,38.913108200000000,141.546768800000000,0226-21-1088,0226-21-1089,2370401000592,株式会社宮城登米広域介護サービス,0470500646,"平日,土曜日,祝日",なし,0,,,,,
042056,0470501107,宮城県,気仙沼市,アースサポート気仙沼,アースサポートケセンヌマ,訪問入浴介護,宮城県気仙沼市古町3丁目2番37号,,38.909503300000000,141.558179000000000,0226－22－8411,0226－22－8401,2011001027780,アースサポート株式会社,0470501107,"平日,土曜日,祝日",12月30日～1月3日を除く,3,http://www.earthsupport.co.jp/,,,,
042056,0470500943,宮城県,気仙沼市,訪問入浴春夏秋冬,ホウモンニュウヨクシュンカシュウトウ,訪問入浴介護,宮城県気仙沼市田中前1丁目1番10号,,38.893977400000040,141.565365099999980,0226‐25‐7651,0226‐25‐7652,9370501001047,株式会社春夏秋冬,0470500943,"平日,土曜日,祝日",夏季（8月14日から8月16日）、年末年始（12月30日から1月3日）は除く。,20,http://www.1goitiyu.com,,,,
042056,0470500687,宮城県,気仙沼市,訪問入浴サービスもとよし,ホウモンニュウヨクサービスモトヨシ,訪問入浴介護,宮城県気仙沼市本吉町津谷舘岡51-6,,38.795684254558400,141.505618592043900,0226-31-1105,0226-31-1039,8370505000426,社会福祉法人気仙沼市社会福祉協議会,0470500687,"平日,土曜日,日曜日,祝日",,0,,,,,
042064,0470600347,宮城県,白石市,社会福祉法人白石ひまわり　ひまわり福祉センター,シャカイフクシホウジンシロイシヒマワリ　ヒマワリフクシセンター,訪問入浴介護,宮城県白石市福岡蔵本字薬師堂２８番地２,,38.006340800000000,140.602650700000030,0224-24-2526,0224-24-2527,1370105001533,社会福祉法人白石ひまわり,0470600347,"平日,祝日",,0,https://care-net.biz/04/shiroishihimawari/,,,,
042072,0470701152,宮城県,名取市,アースサポート名取,アースサポートナトリ,訪問入浴介護,宮城県名取市大手町四丁目14番9号,,38.166858800000000,140.876548200000000,022-381-7211,022-381-7212,2011001027780,アースサポート株式会社,0470701152,"平日,土曜日,祝日",日曜、12月30日～1月3日を除く,0,http://www.earthsupport.co.jp/,,,,
042081,0470800012,宮城県,角田市,ツクイ角田北郷,ツクイカクダキタゴウ,訪問入浴介護,宮城県角田市岡字内川232,,38.019560800000000,140.774281400000000,0224-67-1511,0224-67-1521,1020001136162,株式会社ツクイ,0470800012,"平日,土曜日,日曜日,祝日",,70,http://www.tsukui.net/,,,,
042111,0471100339,宮城県,岩沼市,セントケア岩沼,セントケアイワヌマ,訪問入浴介護,宮城県岩沼市大手町８－１５,,38.107741415997370,140.865817434640460,0223-25-2977,0223-23-8588,3370001016245,セントケア宮城株式会社,0471100339,"平日,土曜日,祝日",但し、ケアプランに応じて日時の検討・対応致します。,0,http://www.saint-care.com,,,,
042129,0471200782,宮城県,登米市,セントケアはさま,セントケアハサマ,訪問入浴介護,宮城県登米市迫町佐沼字梅ノ木一丁目3番地7,,38.694688299999990,141.205109700000000,0220-22-3191,0220-22-3192,3370001016245,セントケア宮城株式会社,0471200782,"平日,祝日",１月１日は休み,0,,,,,
042129,0471200014,宮城県,登米市,株式会社　宮城登米広域介護サービス,カブシキガイシャ　ミヤギトメコウイキカイゴ,訪問入浴介護,宮城県登米市迫町佐沼光ヶ丘１４０－２,,38.686965300000000,141.204474600000030,0220-23-2345,0220-23-1098,2370401000592,株式会社宮城登米広域介護サービス,0471200014,"平日,土曜日,祝日",上記の営業時間以外の時間帯もご利用を承ります。訪問入浴介護、介護予防訪問入浴サービスを受ける１時間前には、食事を済ませる事。皮膚のトラブルや病気等、入浴実施に影響を与える場合は職員に申し出る事。,15,http://www.kaigoservice.co.jp,,,,
042129,0471200873,宮城県,登米市,アスケア訪問入浴登米,アスケアホウモンニュウヨクトメ,訪問入浴介護,宮城県登米市迫町佐沼字梅ノ木2-1-9,,38.695911700000000,141.207071000000040,050-3317-6780,0220-21-0531,5080001018392,株式会社ＡＳＣａｒｅ,0471200873,"平日,祝日",上記時間外についても相談に応じます。,0,http://www.as-care.co.jp,,,,
042137,0471302422,宮城県,栗原市,アースサポート栗原,アースサポートクリハラ,訪問入浴介護,宮城県栗原市志波姫堀口見渡19,,38.737914300000000,141.022123700000000,0228-21-1311,0228-21-1312,2011001027780,アースサポート株式会社,0471302422,"平日,土曜日,祝日",12/30～1/3を除く,0,http://www.earthsupport.co.jp,,,,
042137,0471301127,宮城県,栗原市,セントケア栗駒,セントケアクリコマ,訪問入浴介護,宮城県栗原市栗駒岩ケ崎神南35番1号,,38.831752948469170,140.999515069757250,0228-45-1977,0228-45-1978,3370001016245,セントケア宮城株式会社,0471301127,"平日,土曜日,祝日",年始（１月１日～１月２日）と日曜日のみ定休日となります。,0,http://www.saint-care-tm.com/,,,,
042137,0471300277,宮城県,栗原市,アスケア訪問入浴　栗原,アスケアホウモンニュウヨク　クリハラ,訪問入浴介護,宮城県栗原市若柳字川南堤通11-6,,38.771229588755155,141.121711813780170,050-3317-6781,0228-24-8481,5080001018392,株式会社ＡＳＣａｒｅ,0471300277,"平日,祝日",１２月３１日から１月３日まで休み,0,http://www.asahi-sun-clean.co.jp,,,,
042145,0471400473,宮城県,東松島市,セントケア石巻矢本,セントケア　イシノマキヤモト,訪問入浴介護,東松島市矢本字鹿石前164-1,,38.403736905336665,141.192443912567110,0225-84-1751,0225-84-1752,3370001016245,セントケア宮城株式会社,0471400473,"平日,土曜日,祝日",上記以外で、お客様のご相談に対応いたします。,0,,,,,
042145,0471400523,宮城県,東松島市,アスケア訪問入浴　東松島,アスケアホウモンニュウヨク　ヒガシマツシマ,訪問入浴介護,宮城県東松島市矢本字上河戸64-1,,38.424487200000000,141.209619600000000,050-3317-6782,0225-84-3262,5080001018392,株式会社ＡＳＣａｒｅ,0471400523,"平日,祝日",上記以外のサービス提供時間については相談可能です。,0,https://www.as-care.co.jp/,,,,
042153,0471501494,宮城県,大崎市,セントケア大崎,セントケアオオサキ,訪問入浴介護,宮城県大崎市古川大宮二丁目1番23号,,38.583531232955080,140.954128055383140,0229-21-9310,0229-23-5046,3370001016245,セントケア宮城株式会社,0471501494,"平日,土曜日,祝日",1/1・1/2は休み,0,http://www.saint-care.com,,,,
042153,0471500157,宮城県,大崎市,昭和タクシー　まごころケアサポート　結い,ショウワタクシー　マゴコロケアサポート　ユイ,訪問入浴介護,宮城県大崎市古川字上古川１６５－１,,38.589241600000000,140.941441800000000,0229-24-5888,0229-24-5988,1370202000520,株式会社　昭和タクシー,0471500157,"平日,土曜日,日曜日,祝日",,0,http://www.showa-taxi.net/yui_nyuyoku.html,,,,
042153,0471500173,宮城県,大崎市,有限会社　西古川タクシー　介護福祉事業部　四季のめぐみ,ユウゲンガイシャ　ニシフルカワタクシー　カイゴフクシジギョウブ　シキノメグミ,訪問入浴介護,宮城県大崎市古川新堀字北田42番１,,38.581358172549970,140.894928552917430,0229-36-1161,0229-36-1162,8370202000844,有限会社西古川タクシー,0471500173,"平日,土曜日,祝日",但し、12月30日～1月３日年末年始の５日間は休業いたします。,50,http://www.nishitaxi.com/,,,,
042153,0471500082,宮城県,大崎市,アースサポート古川,アースサポートフルカワ,訪問入浴介護,宮城県大崎市古川字上古川145番地,,38.587603000000000,140.942886199999980,0229-24-0600,0229-24-4896,2011001027780,アースサポート株式会社,0471500082,"平日,土曜日,祝日",,0,http://www.earthsupport.co.jp,,,,
042153,0471500728,宮城県,大崎市,アスケア訪問入浴　岩出山,アスケアホウモンニュウヨク　イワデヤマ,訪問入浴介護,宮城県大崎市岩出山ニノ構79-2,,38.652650941285245,140.865443484794580,050-3317-6783,0229-73-1080,5080001018392,株式会社ＡＳＣａｒｅ,0471500728,"平日,祝日",時間外、相談により利用可,5,http://www.as-care.co.jp,,,,
042161,0471600056,宮城県,富谷市,アースサポート富谷,アースサポートトミヤ,訪問入浴介護,宮城県富谷市富谷清水仲119-4パルネットyou102,パルネットyou102,38.396602529920050,140.894684993254030,022-348-7022,022-348-7822,2011001027780,アースサポート株式会社,0471600056,"平日,祝日",,0,http://www.earthsupport.co.jp,,,,
043214,0472200856,宮城県,大河原町,セントケア大河原,セントケアオオガワラ,訪問入浴介護,宮城県柴田郡大河原町字町55-2サウスロアヴェール101,サウスロアヴェール101,38.050187200000000,140.735215100000000,0224-51-3561,0224-51-3562,3370001016245,セントケア宮城株式会社,0472200856,"平日,土曜日,祝日",ケアプランに応じて要相談。,0,,,,,
043214,0472201243,宮城県,大河原町,アスケア訪問入浴　大河原,アスケアホウモンニュウヨクオオガワラ,訪問入浴介護,宮城県柴田郡大河原町字新東92番地8,,38.061127800000000,140.735517299999970,050-3317-6786,0224-51-5806,5080001018392,株式会社ＡＳＣａｒｅ,0472201243,"平日,祝日",,1,http://www.as-care.co.jp/,,,,
043613,0472400662,宮城県,亘理町,アスケア訪問入浴　亘理,アスケアホウモンニュウヨク　ワタリ,訪問入浴介護,宮城県亘理郡亘理町字中町東191佐々木第一ビル102号,佐々木第一ビル102号,38.033796200000000,140.858739199999940,050-3317-6785,0223-23-1813,5080001018392,株式会社ＡＳＣａｒｅ,0472400662,"平日,祝日",,56,http://www.as-care.co.jp,,,,
044211,0472700442,宮城県,大和町,ツクイ大和,ツクイタイワ,訪問入浴介護,宮城県黒川郡大和町吉岡字天皇寺87,,38.441849100000000,140.887006000000000,022-345-2221,022-347-0559,1020001136162,株式会社ツクイ,0472700442,"平日,土曜日,祝日",,53,https://www.tsukui.net/home-care/2062/,,,,
045012,0473100337,宮城県,涌谷町,ゆうらいふ訪問入浴サービス,ユウライフホウモンニュウヨクサービス,訪問入浴介護,宮城県遠田郡涌谷町涌谷字新下町浦１９２,,38.539412899999990,141.141148700000030,0229-43-6661,0229-43-6670,9370205001112,社会福祉法人　涌谷町社会福祉協議会,0473100337,"平日,土曜日,祝日",,0,http://www.wakuya-sfk.net/,,,,
045055,0473101210,宮城県,美里町,アースサポート美里,アースサポートミサト,訪問入浴介護,宮城県遠田郡美里町字素山町９番地,,38.538685099999980,141.063424500000020,0229-31-1311,0229-31-1312,2011001027780,アースサポート株式会社,0473101210,"平日,土曜日,祝日",12月30日～1月3日を除く。,0,http://www.earthsupport.co.jp,,,,
052019,0570126912,秋田県,秋田市,アースサポート秋田飯島,アースサポートアキタイイジマ,訪問入浴介護,秋田県秋田市飯島道東二丁目12番45号ハイ・ロードブリッチ　1B,ハイ・ロードブリッチ　1B,39.779832790411490,140.067471396958920,018-880-3211,018-880-3212,2011001027780,アースサポート株式会社,0570126912,"平日,祝日",なし,0,https://www.earthsupport.co.jp/,,,,
052019,0570101055,秋田県,秋田市,株式会社　虹の街　秋田営業所,カブシキガイシャ　ニジノマチ　アキタエイギョウショ,訪問入浴介護,秋田県秋田市牛島西1丁目3番8号,,39.697955500000000,140.116372500000000,018-831-5652,018-831-5776,2410001006465,株式会社　虹の街,0570101055,"平日,土曜日,祝日",,0,https://www.saint-care.com/niji/,,,,
052019,0570109058,秋田県,秋田市,アースサポート秋田,アースサポートアキタ,訪問入浴介護,秋田県秋田市桜一丁目13番7号,,39.711417818567810,140.149328432818780,018-836-6811,018-836-6800,2011001027780,アースサポート株式会社,0570109058,"平日,土曜日,祝日",日曜日・12月30日～1月3日を除く,0,http://www.earthsupport.co.jp,,,,
052027,0570206094,秋田県,能代市,株式会社　虹の街　能代営業所,カブシキカイシャ　ニジノマチ　ノシロエイギョウショ,訪問入浴介護,秋田県能代市河戸川字下大須賀40番,,40.183682642892640,140.021998828203270,0185-89-1212,0185-89-1010,2410001006465,株式会社　虹の街,0570206094,"平日,祝日",なし。,0,https://www.saint-care.com/niji/,,,,
052027,0570209973,秋田県,能代市,かもめ介護福祉サービス,カモメカイゴフクシサービス,訪問入浴介護,秋田県能代市落合字亀谷地１－２９,,40.230945500000000,140.010957700000060,0185-52-1026,0185-52-6858,4410002011090,有限会社かもめ,0570209973,"平日,祝日",希望により随時対応しております。,0,,,,,
052035,0570323949,秋田県,横手市,オレンジ訪問入浴事業所,オレンジホウモンニュウヨクジギョウショ,訪問入浴介護,秋田県横手市十文字町字海道下56番地2,,39.228312437309310,140.521928297771520,0182-23-6655,0182-23-6656,9410005005928,社会福祉法人　　アヴェク・トワ,0570323949,"平日,土曜日,日曜日,祝日",,0,https://avec-toi-jumonji.net,,,,
052035,0570319582,秋田県,横手市,アースサポート横手,アースサポートヨコテ,訪問入浴介護,秋田県横手市前郷二番町8番33号,,39.308660000000000,140.563796799999980,0182-33-0050,0182-33-0051,2011001027780,アースサポート株式会社,0570319582,"平日,土曜日,祝日",日曜日・12月30日～1月3日はお休み,0,http://www.earthsupport.co.jp,,,,
052035,0570324210,秋田県,横手市,株式会社　虹の街　横手営業所,カブシキガイシャ　ニジノマチ　ヨコテエイギョウショ,訪問入浴介護,秋田県横手市三本柳字寺田135番3号,,39.319099600707440,140.546221479762240,0182-23-5371,0182-23-5372,2410001006465,株式会社　虹の街,0570324210,"平日,土曜日,祝日",,0,https://www.saint-care.com/niji/,,,,
052043,0570421511,秋田県,大館市,アースサポート大館,アースサポートオオダテ,訪問入浴介護,秋田県大館市字水門前83,,40.276540399999990,140.559655000000020,0186-49-7300,0186-49-7301,2011001027780,アースサポート株式会社,0570421511,"平日,土曜日,祝日",,0,http://www.earthsupport.co.jp,,,,
052043,0570404368,秋田県,大館市,大館市社会福祉協議会　指定訪問入浴介護事業所,オオダテシシャカイフクシキョウギカイ　シテイホウモンニュウヨクカイゴジギョウショ,訪問入浴介護,秋田県大館市池内字大出１３５番地大館市立上川沿公民館,大館市立上川沿公民館,40.243428100000000,140.573082800000060,0186-49-2586,0186-43-4055,5410005002838,社会福祉法人大館市社会福祉協議会,0570404368,"平日,祝日",,0,http://www.oodate-shakyo.or.jp/,,,,
052043,0570424325,秋田県,大館市,株式会社虹の街　大館営業所,カブシキカイシャニジノマチ　オオダテエイギョウショ,訪問入浴介護,秋田県大館市清水3丁目1-2,,40.279610513677035,140.554189436669050,0186-44-5661,0186-49-4818,2410001006465,株式会社　虹の街,0570424325,"平日,祝日",,0,https://www.saint-care.com/niji/,,,,
052078,0570726505,秋田県,湯沢市,株式会社　虹の街　湯沢営業所,カブシキガイシャ　ニジノマチ　ユザワエイギョウショ,訪問入浴介護,秋田県湯沢市字前島129-2,,39.176037200000000,140.486733300000000,0183-56-9070,0183-56-9071,2410001006465,株式会社虹の街,0570726505,"平日,土曜日,祝日",,0,https://www.saint-care.com/niji/,,,,
052094,0570902080,秋田県,鹿角市,東恵園指定訪問入浴介護事業所,トウケイエンシテイホウモンニュウヨクカイゴジギョウショ,訪問入浴介護,秋田県鹿角市花輪字古館5番地１,,40.194476490868200,140.803636936898160,0186-31-0100,0186-23-8030,3410005003490,社会福祉法人花輪ふくし会,0570902080,"平日,土曜日,日曜日,祝日",令和７年10月1日から、稼働日が月曜・火曜・木曜・土曜の午後のみの稼働となります。,0,http://a-hanawafukushikai.jp/,,,,
052108,0570524488,秋田県,由利本荘市,鳥寿苑訪問入浴介護事業所,チョウジュエンホウモンニュウヨクカイゴジギョウショ,訪問入浴介護,秋田県由利本荘市鳥海町伏見字久保７７番地,,39.189689700000000,140.189049500000000,0184-57-2561,0184-57-2562,6410005005856,社会福祉法人　由愛会,0570524488,平日,営業日(火曜日、金曜日)その他、居宅サービス計画又は介護予防サービス計画により申し込みがある場合は対応させて頂きます。,4,http://akita-yuai.com,,,,
052108,0570510891,秋田県,由利本荘市,株式会社　虹の街　　本荘営業所,カブシキガイシャ　ニジノマチ　　ホンジョウエイギョウショ,訪問入浴介護,由利本荘市川口字下野173－1,,39.402105302409630,140.059536406529220,0184-24-6052,0184-24-6053,2410001006465,株式会社　虹の街,0570510891,"平日,土曜日,祝日",なし,0,http://www.saint-care.com/niji/,,,,
052108,0570511501,秋田県,由利本荘市,由利本荘市社会福祉協議会　訪問入浴介護事業所,ユリホンジョウシシャカイフクシキョウギカイ　ホウモンニュウヨクカイゴジギョウショ,訪問入浴介護,秋田県由利本荘市堤脇40番地1,,39.385921000000000,140.045885399999970,0184-24-3634,0184-24-4472,9410005002297,社会福祉法人　由利本荘市社会福祉協議会,0570511501,"平日,祝日",,0,http://www.yurihonjo-shakyo.jp/,,,,
052108,0570590638,秋田県,由利本荘市,そらばす訪問入浴介護事業所,ソラバスホウモンニュウヨクカイゴジギョウショ,訪問入浴介護,秋田県由利本荘市桜小路25－8小笠原アパート１号室,小笠原アパート１号室,39.385673700000000,140.051874500000000,0184-44-8126,0184-44-8127,4410003003855,ＫＴ合同会社,0570590638,"平日,祝日",2024/4新設により今後利用者様が増えれば土、日も稼働します。（改行）事業所の時間は一応ありますが３６５日２４時間電話は対応できます。,30,,,,,
052124,0570825695,秋田県,大仙市,アースサポート大仙,アースサポートダイセン,訪問入浴介護,秋田県大仙市大曲栄町13番45号,,39.454727000000000,140.480252999999950,0187-66-3400,0187-66-3401,2011001027780,アースサポート株式会社,0570825695,"平日,土曜日,祝日",,0,http://www.earthsupport.co.jp,,,,
052124,0570824334,秋田県,大仙市,訪問入浴介護事業所せせらぎ,ホウモンニュウヨクカイゴジギョウショセセラギ,訪問入浴介護,秋田県大仙市大曲字下高畑１６番地２７号,,39.444372700000000,140.498237300000030,0187-66-1225,050-3164-9061,4410003002964,合同会社桜楼,0570824334,"平日,土曜日,日曜日,祝日",,,,,,,
052124,0570801084,秋田県,大仙市,株式会社虹の街大曲営業所,カブシキガイシャ　ニジノマチ　オオマガリエイギョウショ,訪問入浴介護,秋田県大仙市戸蒔字谷地中14-1,,39.450380170968394,140.505895172352640,0187-86-3015,0187-86-3016,2410001006465,株式会社　虹の街,0570801084,"平日,土曜日,祝日",,0,https://www.saint-care.com/niji/,,,,
052132,0572101046,秋田県,北秋田市,株式会社　虹の街　　鷹巣営業所,カブシキガイシャ　ニジノマチ　　タカノスエイギョウショ,訪問入浴介護,秋田県北秋田市脇神字藤株囲の内14番地,,40.202523900000000,140.392630000000050,0186-63-0986,0186-63-0987,2410001006465,株式会社虹の街,0572101046,"平日,祝日",,0,http://www.saint-care.com/niji/,,,,
052132,0571111202,秋田県,北秋田市,北秋田市社協訪問入浴介護事業所,キタアキタシシャキョウホウモンニュウヨクカイゴジギョウショ,訪問入浴介護,秋田県北秋田市花園町１６番１号,,40.227234500000000,140.369569500000000,0186-63-2109,0186-63-2460,3410005003581,社会福祉法人　北秋田市社会福祉協議会,0571111202,"平日,祝日",祝日が土・日曜日の場合は定休日です。,0,http://www.kitaakita-shakyo.or.jp,,,,
053481,0572214245,秋田県,三種町,三種町社会福祉協議会　訪問入浴サービス,ミタネチョウシャカイフクシキョウギカイ　ホウモンニュウヨクサービス,訪問入浴介護,秋田県山本郡三種町森岳字上台９３－５,,40.079784300000010,140.092034900000020,0185-83-3900,0185-83-3200,8410005003998,社会福祉法人三種町社会福祉協議会,0572214245,"平日,祝日",,0,https://mitane-shakyo.jp/,,,,
062014,0670100270,山形県,山形市,株式会社あっぷるケアサービス,カブシキガイシャアップルケアサービス,訪問入浴介護,山形市久保田１－７－７,,38.248414100000000,140.318712199999940,023-622-1199,023-644-0299,3390001001856,株式会社あっぷるケアサービス,0670100270,"平日,祝日",特になし。,0,http://www.join-group.jp/apple/,,,,
062014,0670104736,山形県,山形市,訪問入浴つばさ,ホウモンニュウヨクツバサ,訪問入浴介護,山形県山形市北町2-6-6,,38.270525700000000,140.330011100000000,023-615-8610,023-615-8611,4390001004783,株式会社ユニバーサル山形,0670104736,"平日,土曜日,祝日",,0,http://www.tbasa.co.jp,,,,
062014,0670101617,山形県,山形市,アースサポート山形,アースサポートヤマガタ,訪問入浴介護,山形県山形市吉原1丁目11-13,,38.228300805321645,140.315547831121880,023-645-7311,023-645-7322,2011001027780,アースサポート株式会社,0670101617,"平日,土曜日,祝日",,0,http://www.earthsupport.co.jp/,,,,
062014,0670100684,山形県,山形市,山形市社会福祉協議会　訪問入浴介護事業所,ヤマガタシシャカイフクシキョウギカイホウモンニュウヨクカイゴジギョウショ,訪問入浴介護,山形県山形市城西町二丁目２番２２号,,38.254669199999995,140.322033800000000,023-645-9232,023-647-9751,5390005000530,社会福祉法人山形市社会福祉協議会,0670100684,"平日,土曜日,祝日",日曜日・12月31日～1月3日は休業,5,http://www.yamagatashisyakyo.or.jp,,,,
062014,0670103845,山形県,山形市,アスケア訪問入浴山形,アスケアホウモンニュウヨクヤマガタ,訪問入浴介護,山形県山形市あかねヶ丘３丁目１番８号,,38.242353120735410,140.311621939286850,050-3317-6800,023-644-0669,5080001018392,株式会社ＡＳＣａｒｅ,0670103845,"平日,土曜日,祝日",サービス提供時間　午前8時30分から午後5時30分までとする。ただし、それ以外の時間帯においてもサービスの提供が行えるものとする。,0,http://www.asahi-sun-clean.co.jp,,,,
062022,0670402064,山形県,米沢市,ツクイ米沢栄町,ツクイヨネザワカナイケ,訪問入浴介護,山形県米沢市栄町1-4,,37.921947500000000,140.114485400000000,0238-26-7303,0238-26-7202,9020001004171,株式会社ツクイ,0670402064,"平日,祝日",,0,,,,,
062022,0670401363,山形県,米沢市,株式会社　きらり　訪問入浴介護事業所,カブシキガイシャ　キラリ　ホウモンニュウヨクカイゴジギョウショ,訪問入浴介護,山形県米沢市大字口田沢１５００番地の１,,37.905575600000000,140.026651799999970,0238-31-2228,0238-31-2229,1390001010941,株式会社きらり,0670401363,"平日,祝日",８月１３日及び１２月３１日から１月２日まで休業となります。,7,,,,,
062022,0670401769,山形県,米沢市,アースサポート米沢,アースサポートヨネザワ,訪問入浴介護,山形県米沢市金池1-4-3,,37.917565600000000,140.116367600000000,0238-24-2311,0238-24-2312,2011001027780,アースサポート株式会社,0670401769,"平日,土曜日,祝日",日曜日、12月30日～1月3日,0,http://www.earthsupport.co.jp,,,,
062031,0670701598,山形県,鶴岡市,アースサポート鶴岡,アースサポートツルオカ,訪問入浴介護,山形県鶴岡市末広町29-9,,38.741542900000000,139.841106699999950,0235-23-7400,0235-23-7401,2011001027780,アースサポート株式会社,0670701598,"平日,祝日",12/30～1/3はお休みになります。,0,http://www.earthsupport.co.jp,,,,
062031,0670700475,山形県,鶴岡市,山形虹の会訪問入浴サービス,ヤマガタニジノカイホウモンニュウヨクサアビス,訪問入浴介護,鶴岡市民田字代家田１００－１,,38.704777100000000,139.826581400000000,0235-25-1131,0235-25-0810,4390005003971,社会福祉法人山形虹の会,0670700475,"平日,土曜日,祝日",,0,http://niji-kakehashi.or.jp/,,,,
062031,0670700079,山形県,鶴岡市,一般社団法人鶴岡地区医師会　介護老人保健施設みずばしょう訪問入浴,イッパンシャダンホウジン　ツルオカチクイシカイ　カイゴロウジンホケンシセツミズバショウ　ホウモンニュウヨク,訪問入浴介護,鶴岡市羽黒町後田字谷地田191-4,,38.715016997482730,139.880658525137360,0235-28-1584,0235-28-1586,7390005003936,一般社団法人　鶴岡地区医師会,0670700079,"平日,土曜日",,0,http://tsuruoka‐zaitakusc.jp/,,,,
062049,0670801406,山形県,酒田市,アースサポート酒田,アースサポートサカタ,訪問入浴介護,山形県酒田市若原町５番２,,38.897711308516990,139.843510847675360,0234-26-9900,0234-26-9911,2011001027780,アースサポート株式会社,0670801406,"平日,土曜日,祝日",12/30-1/3はお休みになります。,0,http://www.earthsupport.co.jp,,,,
062049,0670800051,山形県,酒田市,株式会社　福祉のひろば,カブシキガイシャ　フクシノヒロバ,訪問入浴介護,山形県酒田市穂積字上市神１３９－５,,38.976235400000000,139.863035600000000,0234-33-2581,0234-33-2579,4390001006532,株式会社　福祉のひろば,0670800051,"平日,祝日",希望の時間帯に可能な限り合わせて訪問いたします。,0,http://www18.ocn.ne.jp/~fukushi12/,,,,
062057,0671101020,山形県,新庄市,カイセイ訪問入浴サービス,カイセイホウモンニュウヨクサービス,訪問入浴介護,新庄市末広町7-4,,38.756333200000000,140.304433499999960,0233-29-2912,0233-32-0817,1390002011286,有限会社カイセイカンパニー,0671101020,"平日,土曜日,祝日",,0,http://www.kaisei-company.com,,,,
062057,0671100436,山形県,新庄市,アスケア訪問入浴新庄,アスケアホウモンニュウヨクシンジョウ,訪問入浴介護,山形県新庄市大町16-6,,38.759760400000000,140.298247700000050,050-3317-6799,0233-23-5595,5080001018392,株式会社ＡＳＣａｒｅ,0671100436,"平日,祝日",営業時間　午前８時３０分から午後５時３０分までとする。その他の利用時間においては、利用者と協議の上決定する。,0,http://www.asahi-sun-clean.co.jp/,,,,
062065,0671200129,山形県,寒河江市,寒河江市社会福祉協議会指定訪問入浴介護事業所,サガエシシャカイフクシキョウギカイシテイホウモンニュウヨクカイゴジギョウショ,訪問入浴介護,山形県寒河江市中央二丁目2番1号寒河江市ハートフルセンター内,寒河江市ハートフルセンター内,38.382921600000000,140.277252699999960,0237-83-3207,0237-83-3221,1390005007653,社会福祉法人　寒河江市社会福祉協議会,0671200129,平日,なし,0,http://care-net.biz/06/sagae/,,,,
062073,0671300630,山形県,上山市,SOMPOケア　上山　訪問入浴,ソンポケア　カミノヤマ　ホウモンニュウヨク,訪問入浴介護,山形県上山市石曽根37,,38.135974500000000,140.260058999999950,023-695-5611,023-677-0098,1260001015656,ＳＯＭＰＯケア株式会社,0671300630,"平日,土曜日,祝日",サービス提供時間は事前に居宅介護支援事業者等により計画された居宅サービスに基づくものとし、原則として緊急のサービスの依頼をお受けする事は出来ません。,45,https://www.sompocare.com,,,,
062111,0671700151,山形県,東根市,東根市社会福祉協議会指定訪問入浴介護事業所,ヒガシネシシャカイフクシキョウギカイシテイホウモンニュウヨクカイゴジギョウショ,訪問入浴介護,東根市中央一丁目3番5号東根市ふれあいセンター,東根市ふれあいセンター,38.431210000000000,140.392848599999980,0237-53-8211,0237-42-1350,3390005005944,社会福祉法人　東根市社会福祉協議会,0671700151,"平日,土曜日,祝日",,22,higashine-shakyo.or.jp,,,,
062138,0671900579,山形県,南陽市,アースサポート南陽,アースサポートナンヨウ,訪問入浴介護,山形県南陽市赤湯2962-7,,38.046597600000000,140.168429800000000,0238-50-2911,0238-50-2912,2011001027780,アースサポート株式会社,0671900579,"平日,土曜日,祝日",,0,http://www.earthsupport.co.jp,,,,
063622,0672500097,山形県,最上町,訪問入浴介護事業所「グリーン」,ホウモンニュウヨクカイゴジギョウショ　グリーン,訪問入浴介護,山形県最上郡最上町大字向町43番地の1,,38.753173300000000,140.517151199999940,0233-43-3112,0233-43-3119,5390005005513,社会福祉法人　最上町社会福祉協議会,0672500097,"平日,土曜日,祝日",なし,0,http://www.mogami-shakyo.net,,,,
064289,0673000873,山形県,庄内町,日花里訪問入浴介護事業所,ヒカリホウモンニュウヨクカイゴジギョウショ,訪問入浴介護,山形県東田川郡庄内町余目月屋敷186番6号,,38.847071300000000,139.911637900000000,0234-25-5910,0234-25-5911,9390001016213,株式会社日花里,0673000873,"平日,祝日",,7,,,,,
072010,0770105559,福島県,福島市,訪問スパ　スマイル飯坂温　温泉入浴サービス,ホウモンスパ　スマイルイイザカ　オンセンニュウヨクサービス,訪問入浴介護,福島市飯坂町湯野字上川原１-１,,37.838032200000000,140.450313500000000,024-597-6101,024-572-5158,1380002003805,有限会社山形屋商店,0770105559,"平日,土曜日,祝日",,,,,,,
072010,0770101350,福島県,福島市,有限会社キューピット介護サービス,ユウゲンガイシャキューピットカイゴサービス,訪問入浴介護,福島県福島市泉字二斗蒔１８－１５,,37.775306940835760,140.451517245399500,024-555-0026,024-555-0223,6380002004261,有限会社キューピット介護サービス,0770101350,"平日,土曜日,祝日",-,35,http://www.kyupitto.com/,,,,
072010,0770101830,福島県,福島市,アースサポート福島,アースサポートフクシマ,訪問入浴介護,福島県福島市曾根田町６番１０号,,37.761932650056240,140.459497109123250,024-531-0005,024-531-0006,2011001027780,アースサポート株式会社,0770101830,"平日,土曜日,祝日",定休日は日曜日、12/30～1/3,0,http://www.earthsupport.co.jp/,,,,
072010,0770106474,福島県,福島市,訪問スパ　スマイル飯坂　温泉入浴サービス,ホウモンスパ　スマイルイイザカ　オンセンニュウヨクサービス,訪問入浴介護,飯坂町小滝20-29,,37.836498200000000,140.448841400000000,024-597-6101,024-572-5158,6380003005639,合同会社ウェルケア,0770106474,"平日,土曜日,祝日",,,https://houmonspa.com/,,,,
072010,0770103471,福島県,福島市,アサヒサンクリーン在宅介護センター福島,アサヒサンクリーンザイタクカイゴセンターフクシマ,訪問入浴介護,福島県福島市南矢野目字高田5,,37.786543096021340,140.468888435473670,050-3317-6801,024-572-7326,5080001018392,アサヒサンクリーン株式会社,0770103471,"平日,祝日",,0,http://www.asahi-sun-clearn.co.jp/,,,,
072010,0770100519,福島県,福島市,民間救急警備株式会社　福島営業所,ミンカンキュウキュウケイビカブシキガイシャ　フクシマエイギョウショ,訪問入浴介護,福島県福島市森合字台３番地の２８,,37.764610700000010,140.457304499999940,024-525-2255,024-521-3399,1380001006701,民間救急警備株式会社,0770100519,"平日,土曜日,祝日",週休2日制であり、日曜日を定休日とし、その他はシフト勤務による。,120,http://minkyu-k.com/,,,,
072028,0770201473,福島県,会津若松市,アースサポート会津若松,アースサポートアイヅワカマツ,訪問入浴介護,福島県会津若松市滝沢町7番17号,,37.505187800000000,139.943055200000000,0242-22-2101,0242-22-2102,2011001027780,アースサポート株式会社,0770201473,"平日,土曜日,祝日",日曜日、12月30日～1月3日を除く,0,http://www.earthsupport.co.jp/,,,,
072028,0770200186,福島県,会津若松市,丸光産業株式会社　丸光ケアサービス　会津若松支店,マルミツサンギョウカブシキカイシャ　マルミツケアサービスアイヅワカマツシテン,訪問入浴介護,福島県会津若松市表町1-33,,37.481992900000000,139.927165800000000,0242-38-3703,0242-38-4803,9010501013359,丸光産業株式会社,0770200186,"平日,土曜日,祝日",定休日以外の祝祭日は通常通り営業致します。,0,http://www.k2.dion.ne.jp/~marumitu/,,,,
072028,0770202430,福島県,会津若松市,ツクイ会津,ツクイアイヅ,訪問入浴介護,福島県会津若松市中央1-5-30,,37.500565100000000,139.930566900000000,0242-39-6210,0242-39-6212,1020001136162,株式会社ツクイ,0770202430,"平日,土曜日,日曜日,祝日",,0,https：//www.tsukui.net/,,,,
072036,0770305522,福島県,郡山市,SOMPOケア　郡山　訪問入浴,ソンパケア　コオリヤマ　ホウモンニュウヨク,訪問入浴介護,名倉290-1,,37.374016400000000,140.368364800000000,024-937-0556,024-946-7555,1260001015656,ＳＯＭＰＯケア株式会社,0770305522,"平日,土曜日,祝日",緊急を要する場合などは上記の営業日、営業時間に限らずご相談を承ります。,0,https://www.sompocare.com,,,,
072036,0770300564,福島県,郡山市,社会福祉法人郡山市社会福祉協議会ホームヘルプサービスセンター,シャカイフクシホウジンコオリヤマシシャカイフクシキョウギカイホームヘルプサービスセンター,訪問入浴介護,福島県郡山市深沢二丁目4番12号,,37.389701300000000,140.370093600000000,024-924-2960,024-924-2948,1380005002523,社会福祉法人郡山市社会福祉協議会,0770300564,"平日,祝日",12月29日から1月3日までは休業となります．,0,http://koriyama-shakyo.jp/,,,,
072036,0770301992,福島県,郡山市,アースサポート郡山,アースサポートコオリヤマ,訪問入浴介護,福島県郡山市桑野2丁目22番1号,,37.401722799999990,140.355746600000000,024-922-4600,024-922-4911,2011001027780,アースサポート株式会社,0770301992,"平日,土曜日,祝日",定休日は日曜日、12/30～1/3,0,http://www.earthsupport.co.jp,,,,
072036,0770304186,福島県,郡山市,アサヒサンクリーン在宅介護センター郡山,アサヒサンクリーンザイタクカイゴセンターコオリヤマ,訪問入浴介護,郡山市桑野2-25-11Ｆビル101,Ｆビル101,37.402689700000000,140.353425900000050,050-3317-6806,024-953-3632,5080001018392,アサヒサンクリーン株式会社,0770304186,"平日,祝日",,0,https://www.asahi-sun-clean.co.jp,,,,
072036,0770306249,福島県,郡山市,すまいるケア訪問入浴,スマイルケアホウモンニュウヨク,訪問入浴介護,福島県郡山市中野二丁目１６１,,37.389207400000000,140.329764200000000,024-953-3721,024-953-3722,2380001006980,株式会社リードシステム,0770306249,"平日,土曜日,祝日",,,https:/www.gurutto-koriyama.com/detail/516/index.html,,,,
072036,0770300390,福島県,郡山市,民間救急警備株式会社郡山本社営業所,ミンカンキュウキュウケイビカブシキカイシャ　コオリヤマホンシャエイギョウショ,訪問入浴介護,福島県郡山市開成六丁目212番地の1,,37.386205050576080,140.352213949073790,024-932-4199,024-922-0030,1380001006701,民間救急警備株式会社,0770300390,"平日,土曜日,祝日",利用者様からの要望があれば、時間外のサービスも行います。,70,http://minkyu-k.com/,,,,
072036,0770305670,福島県,郡山市,丸光産業株式会社　丸光ケアサービス　あたみ,マルミツサンギョウカブシキガイシャ　マルミツケアサービス　アタミ,訪問入浴介護,福島県郡山市熱海町熱海5丁目283,,37.487943900000000,140.261673299999980,024-973-7580,024-954-3210,9010501013359,丸光産業株式会社,0770305670,"平日,土曜日",,30,https://marumitsu-care.jp/,,,,
072036,0770301927,福島県,郡山市,丸光産業株式会社　丸光ケアサービス田村支店,マルミツサンギョウカブシキガイシャ　マルミツケアサービスタムラシテン,訪問入浴介護,福島県郡山市田村町下行合字宮田１３０－８５,,37.370730300000000,140.410291799999980,024-941-1403,024-941-1404,9010501013359,丸光産業株式会社,0770301927,"平日,土曜日,祝日",日曜日は休み　祝日は通常通り営業（12月31日、１月１日、1月2日のみ休み）,35,http://marumitsu-care.jp,,,,
072036,0770300242,福島県,郡山市,丸光産業株式会社　丸光ケアサービス　富田支店,マルミツサンギョウカブシキガイシャ　マルミツケアサービス　トミタシテン,訪問入浴介護,福島県郡山市備前舘1-30,,37.416280300000000,140.364602300000000,024-927-0331,024-927-0307,9010501013359,丸光産業株式会社,0770300242,"平日,土曜日,祝日",,0,http://marumitsu-care.jp/,,,,
072044,0770409068,福島県,いわき市,i-step訪問入浴,アイステップホウモンニュウヨク,訪問入浴介護,いわき市平上荒川字桜町２１-１,,37.034211200000016,140.888851000000000,0246-80-0889,0246-88-7579,,i-step株式会社,0770409068,"平日,土曜日,祝日",,,http://www.i-stepproject.jp/,,,,
072044,0770400703,福島県,いわき市,いわき市社会福祉協議会　指定訪問入浴介護事業所,イワキシシャカイフクシキョウギカイ　シテイホウモンニュウヨクカイゴジギョウショ,訪問入浴介護,福島県いわき市平字菱川町1-3,,37.050672400000000,140.891083999999980,0246-35-2822,0246-35-2833,3380005005714,社会福祉法人いわき市社会福祉協議会,0770400703,平日,,40,http://www.iwaki-shakyo.com,,,,
072044,0770400752,福島県,いわき市,（株）愛心会365日ほっと入浴,（カブ）アイシンカイ３６５ニチホットニュウヨク,訪問入浴介護,福島県いわき市佐糠町東一丁目10-８,,36.918929000000000,140.805766100000030,0246-62-0118,0246-77-2220,4380001014222,株式会社愛心会,0770400752,"平日,土曜日,祝日",家族の都合等により単発的な若干の時間外は訪問可能（例えば８：４０～とか）,0,aisinkai-iwaki.com,,,,
072044,0770402931,福島県,いわき市,アースサポートいわき,アースサポートイワキ,訪問入浴介護,福島県いわき市平祢宜町１番地の２,,37.057499500000000,140.902299099999940,0246-22-5900,0246-22-5911,2011001027780,アースサポート株式会社,0770402931,"平日,土曜日,祝日",定休日は日曜日、12月30日～1月3日,3,http://www.earthsupport.co.jp,,,,
072044,0770405009,福島県,いわき市,アサヒサンクリーン在宅介護センターいわき,アサヒサンクリーンザイタクカイゴセンターイワキ,訪問入浴介護,福島県いわき市泉町７－２１－１ルヴァン１階,ルヴァン１階,36.954484460718750,140.859560869836430,050-3317-6805,0246-75-2150,5080001018392,アサヒサンクリーン株式会社,0770405009,"平日,祝日",,0,http://www.asahi-sun-clean.co.jp,,,,
072044,0770400067,福島県,いわき市,株式会社　大間シルバーケア　訪問入浴事業所,カブシキガイシャ　オオマシルバーケア　ホウモンニュウヨクジギョウショ,訪問入浴介護,福島県いわき市平中神谷字南鳥沼27,,37.063336000000000,140.934619800000060,0246-34-4828,0246-34-4510,4380001012564,株式会社大間シルバーケア,0770400067,"平日,土曜日,祝日",定休日、時間外であっても利用者の要望によりサービスを提供する,0,https://www.gurutto-iwaki.com/detail/2664/index.html,,,,
072052,0770500155,福島県,白河市,民間救急警備株式会社　白河営業所,ミンカンキュウキュウケイビカブシキカイシャ　シラカワエイギョウショ,訪問入浴介護,福島県白河市昭和町　１４－３,,37.130103695293760,140.202376186863720,0248-23-4199,0248-22-9048,1380001006701,民間救急警備株式会社,0770500155,"平日,土曜日,祝日",週休2日制であり、日曜日を定休日とし、その他はシフト勤務による。,50,http://minkyu-k.com/,,,,
072079,0770700268,福島県,須賀川市,ニチイケアセンター須賀川,ニチイケアセンタースカガワ,訪問入浴介護,福島県須賀川市塚田74　ヨネクラビル2F,,37.299853800000010,140.372743200000060,0248-63-1711,0248-63-1712,3010001025868,株式会社　ニチイ学館,0770700268,"平日,土曜日,日曜日,祝日",居宅サービス計画により、休業日・営業時間以外であってもサービスの提供を行うことがある。,0,http://www.nichiigakkan.co.jp,,,,
072079,0770700953,福島県,須賀川市,丸光産業株式会社　丸光ケアサービス森宿,マルミツサンギョウカブシキガイシャ　マルミツケアサービスモリジュク,訪問入浴介護,福島県須賀川市森宿字狐石127-1,,37.306117000000000,140.360655100000030,0248-63-8103,0248-72-6703,9010501013359,丸光産業株式会社,0770700953,"平日,土曜日,祝日",日曜日と年末年始（12月31日、１月１日、1月2日）（祝祭日は営業）,1,marumitsu-care.jp/,,,,
072079,0770701480,福島県,須賀川市,アサヒサンクリーン在宅介護センター須賀川,アサヒサンクリーンカブシキガイシャザイタクカイゴセンタースカガワ,訪問入浴介護,福島県須賀川市館取町115,,37.292245400000000,140.364838200000000,050-3508-6262,0248-94-8602,5080001018392,アサヒサンクリーン株式会社,0770701480,"平日,祝日",,0,https://www.asahi-sun-clean.co.jp/search/houmon_service/houmon_service01/1535/,,,,
072079,0770701001,福島県,須賀川市,アースサポート須賀川,アースサポートスカガワ,訪問入浴介護,福島県須賀川市塚田133カトルセゾン105,カトルセゾン105,37.298140557014810,140.374003076686450,0248-76-8500,0248-76-8501,2011001027780,アースサポート株式会社,0770701001,"平日,祝日",定休日は土曜日、日曜日、12/30～1/3,0,http://www.earthsupport.co.jp,,,,
072087,0770800423,福島県,喜多方市,ケアサポート優友,ケアサポートユウユウ,訪問入浴介護,福島県喜多方市熊倉町熊倉字壇ノ前１４８５－１,,37.642149700000000,139.923449900000000,0241-25-7659,0241-25-7680,6380002035257,有限会社ヤマコウ商事,0770800423,"平日,土曜日,日曜日,祝日",,,,,,,
072095,0770900694,福島県,相馬市,アサヒサンクリーン在宅介護センター相馬,アサヒサンクリーンザイタクカイゴセンターソウマ,訪問入浴介護,福島県相馬市沖ノ内２丁目１5-４フラット　101号室,フラット　101号室,37.806502354408040,140.932556555819670,050-3317-6807,0244-32-0352,5080001018392,アサヒサンクリーン株式会社,0770900694,"平日,祝日",祝日は通常営業しております。,,http://www.asahi-sun-clean.co.jp/,,,,
072095,0770900587,福島県,相馬市,居宅介護事業所でんでん虫,キョタクカイゴジギョウショデンデンムシ,訪問入浴介護,福島県相馬市中野字北反町８５番地,,37.795259000000000,140.923898800000000,0244-26-7515,0244-26-7516,4380005010408,一般社団法人ひまわりの家,0770900587,"平日,土曜日,祝日",営業時間外のサービスの提供については、担当者等と相談の上行なうことができる,0,,,,,
072095,0770900306,福島県,相馬市,そうま・ほっと入浴サービス,ソウマ・ホットニュウヨクサービス,訪問入浴介護,福島県相馬市今田字大竹３４,,37.781194100000000,140.902916499999950,0244-37-8179,0244-37-8178,4380002028584,有限会社そうま介護センター,0770900306,"平日,祝日",,0,http://soma-kaigo.com/,,,,
072109,0771000403,福島県,二本松市,二本松市社会福祉協議会入浴ステーションにほんまつ,ニホンマツシシャカイフクシキョウギカイニュウヨクステーションニホンマツ,訪問入浴介護,福島県二本松市油井字濡石1番地２,,37.607739400000010,140.461153200000000,0243-23-8244,0243-23-9046,4380005004368,社会福祉法人二本松市社会福祉協議会,0771000403,"平日,土曜日,祝日",上記以外の時間帯の緊急連絡については、電話転送により連絡は可能です。,0,,,,,
072117,0771100229,福島県,田村市,訪問入浴介護事業所　たむら,ホウモンニュウヨクカイゴジギョウショ　タムラ,訪問入浴介護,福島県田村市船引町春山字道ノ原７３－４,,37.436852500000000,140.546466600000030,0247-81-1926,0247-81-1930,7380002014862,有限会社オリエンタルサービス,0771100229,"平日,土曜日",,0,,,,,
072125,0771200458,福島県,南相馬市,訪問入浴サービス　えーる,ホウモンニュウヨクサービス　エール,訪問入浴介護,福島県南相馬市原町区国見町3丁目8番4,,37.625927048890370,140.946741054508980,0244-26-6724,0244-26-9271,3380003001640,えーる,0771200458,平日,,6,,,,,
072141,0772100012,福島県,本宮市,株式会社　アフロサービス,カブシキガイシャ　アフロサービス,訪問入浴介護,福島県本宮市本宮字舘町132,,37.520722100000000,140.397737199999940,0243-33-3833,0243-33-3832,8380001009598,株式会社アフロサービス,0772100012,"平日,祝日",基本的な提供時間は次の通りです。9:00～10:00、10:00～11:00、11:00～12:00、13:30～14:30、14:30～15:30、15:30～16:30。ただし、交通事情や移動時間等の理由により開始予定時刻をあらかじめご相談させていただく場合がございます。,0,,,,,
072141,0772100590,福島県,本宮市,訪問入浴ぽかぽかサービス,ホウモンニュウヨクポカポカサービス,訪問入浴介護,福島県本宮市本宮字南町裡７１－４,,37.515270000000000,140.401339700000000,0243-34-5526,0243-34-5527,4380002017232,有限会社ぽかぽかサービス,0772100590,"平日,土曜日",,0,,,,,
073440,0772200143,福島県,天栄村,天栄村ホームヘルパーステーション,テンエイムラホームヘルパーステーション,訪問入浴介護,福島県岩瀬郡天栄村大字下松本字富士見山１５－１,,37.257805600000005,140.245427300000020,0248-82-2826,0248-82-2832,6380005005463,社会福祉法人天栄村社会福祉協議会,0772200143,"平日,土曜日",,,https://www.teneishakyo.or.jp,,,,
073628,0772300208,福島県,下郷町,下郷町社会福祉協議会指定居宅サービス事業所,シモゴウマチシャカイフクシキョウギカイシテイキョタクサービスジギョウショ,訪問入浴介護,福島県南会津郡下郷町大字湯野上字杉ノ内乙５４８番地,,37.295521200000000,139.899235600000000,0241-69-5111,0241-69-5113,6380005009778,社会福祉法人下郷町社会福祉協議会,0772300208,"平日,祝日",,16,http://simogo-shakyo.or.jp/,,,,
073687,0772300547,福島県,南会津町,南会津町社協指定訪問入浴介護事業所,ミナミアイヅマチシャキョウシテイホウモンニュウヨクカイゴジギョウショ,訪問入浴介護,福島県南会津郡南会津町田島字中町甲３９１８番地１０,,37.200711500000000,139.773957000000000,0241-62-6161,0241-62-6162,2380005010070,社会福祉法人南会津町社会福祉協議会,0772300547,平日,土曜、日曜、祝日、年末年始は休業となる。,0,https://m-aizu-shakyo.or.jp/,,,,
074233,0782600035,福島県,柳津町,柳津町社会福祉協議会訪問入浴介護サービス,ヤナイヅマチシャカイフクシキョウギカイホウモンニュウヨクカイゴサービス,訪問入浴介護,福島県河沼郡柳津町大字柳津字下荒町甲1111番地,,37.529478600000000,139.727666499999940,0241-42-3418,0241-42-2727,1380005009147,社会福祉法人柳津町社会福祉協議会,0782600035,"平日,祝日",,,https://yanaizusyakyo.wixsite.com/website,,,,
074454,0782700033,福島県,金山町,ホームヘルプステーション「ゆうゆう」,ホームヘルプステーション「ユウユウ」,訪問入浴介護,福島県大沼郡金山町大字中川字沖根原1324,,37.474283600000000,139.530257400000000,0241-55-3336,0241-55-3412,9380005009172,社会福祉法人金山町社会福祉協議会,0782700033,"平日,土曜日,日曜日,祝日",,,https://kaneyamashakyo.or.jp,,,,
074471,0772700282,福島県,会津美里町,グリーンケア　訪問入浴サービス,グリーンケア　ホウモンニュウヨクサービス,訪問入浴介護,福島県大沼郡会津美里町荻窪字上野１８５番地,,37.450725055298676,139.809638992590300,0242-54-2300,0242-54-2338,2380005007926,医療法人社団　平成会,0772700282,"平日,祝日",水・金曜日　（ただし１２／３１～１／３を除く）,0,http://www.heiseikai-group.com/,,,,
074616,0772800207,福島県,西郷村,丸光産業株式会社　丸光ケアサービス白河支店,マルミツサンギョウカブシキカイシャ　マルミツケアサービスシラカワシテン,訪問入浴介護,福島県西白河郡西郷村大字柏野字鞍石１５－１,,37.159230099999990,140.178866600000000,0248-48-1703,0248-48-1704,9010501013359,丸光産業株式会社,0772800207,"平日,土曜日,祝日",,5,http://marumitsu-care.jp/,,,,
074641,0772800280,福島県,泉崎村,泉崎村社会福祉協議会訪問入浴サービス事業所,イズミザキムラシャカイフクシキョウギカイホウモンニュウヨクサービスジギョウショ,訪問入浴介護,福島県西白河郡泉崎村大字泉崎字山ヶ入１０１番地泉崎村保健福祉総合センター内,泉崎村保健福祉総合センター内,37.158121600000000,140.291604799999960,0248-54-1622,0248-53-2181,2380005004659,社会福祉法人泉崎村社会福祉協議会,0772800280,平日,-,0,,,,,
074811,0772900080,福島県,棚倉町,寿恵園(訪問入浴介護事業所),ジュケイエン(ホウモンニュウヨクカイゴジギョウショ),訪問入浴介護,福島県東白川郡棚倉町大字棚倉字舘ヶ丘７９番地,,37.022275700000000,140.376423899999960,0247-33-6061,0247-33-6062,8380005004810,社会福祉法人東白川福祉会,0772900080,"平日,土曜日,日曜日,祝日",,0,http://www.jyukeien.com/,,,,
074837,0772900163,福島県,塙町,塙町指定訪問入浴介護事業所,ハナワマチシテイホウモンニュウヨクカイゴジギョウショ,訪問入浴介護,福島県東白川郡塙町大字塙字材木町32番地,,36.960959000000000,140.409592200000020,0247-43-2154,0247-44-1002,6380005004812,社会福祉法人塙町社会福祉協議会,0772900163,平日,特になし,6,http://www.hanawa-shakyou.or.jp,,,,
082015,0870100278,茨城県,水戸市,ウエルシア介護サービス水戸,ウエルシアカイゴサービスミト,訪問入浴介護,水戸市百合が丘町8番3,,36.342875500000000,140.504002400000000,029-304-0058,029-304-0038,6050001015937,ウエルシア介護サービス株式会社,0870100278,"平日,土曜日,祝日",日曜日、年始（1月1日～1月3日）は休業,0,https://www.welcia-kaigo.co.jp/,,,,
082015,0870102894,茨城県,水戸市,アースサポート水戸,アースサポートミト,訪問入浴介護,茨城県水戸市赤塚1丁目376番地の1,,36.382821799999990,140.416947700000040,029-255-9300,029-255-9311,2011001027780,アースサポート株式会社,0870102894,"平日,土曜日,祝日",水曜日・日曜日・12/30～1/3を除く,0,https://www.earthsupport.co.jp,,,,
082023,0870202694,茨城県,日立市,ウエルシア介護サービス日立大みか,ウエルシアカイゴサービスヒタチオオミカ,訪問入浴介護,茨城県日立市大みか町3-25-1,,36.511747699999994,140.630609400000000,0294-29-1730,0294-29-1731,6050001015937,ウエルシア介護サービス株式会社,0870202694,"平日,土曜日,祝日",,0,https://www.welcia-kaigo.co.jp/,,,,
082023,0870202827,茨城県,日立市,ウエルシア介護サービス日立北,ウエルシアカイゴサービスヒタチキタ,訪問入浴介護,茨城県日立市川尻町６丁目46-20グラヴィティ101号室,グラヴィティ101号室,36.668146400000000,140.689600200000000,0294-87-8286,0294-87-8287,6050001015937,ウエルシア介護サービス株式会社,0870202827,"平日,土曜日,祝日",,0,https://www.welcia-kaigo.co.jp,,,,
082023,0870200094,茨城県,日立市,ニチイケアセンター日立,ニチイケアセンターヒタチ,訪問入浴介護,茨城県日立市助川町2-6-22,,36.593087900000000,140.648045000000020,0294-25-0201,0294-25-0204,3010001025868,株式会社　ニチイ学館,0870200094,"平日,土曜日,祝日",但し、居宅サービス計画により、休業日であってもサービスの提供を行う場合がある。,0,http://www.nichiigakkan.co.jｐ,,,,
082023,0870201381,茨城県,日立市,アースサポート日立,アースサポートヒタチ,訪問入浴介護,茨城県日立市桜川町1丁目1番13号,,36.557169400000000,140.628337399999960,0294-35-4200,0294-35-4201,2011001027780,アースサポート株式会社,0870201381,"平日,土曜日,祝日",日曜日、12/30～1/3を除く,0,https://www.earthsupport.co.jp/,,,,
082023,0870200011,茨城県,日立市,日立介護ステーション,ヒタチカイゴステーション,訪問入浴介護,茨城県日立市会瀬町2-21-11,,36.578881838201970,140.648902378814850,0294-87-7385,0294-33-7811,5050001056239,株式会社らいふアシスト,0870200011,"平日,土曜日,祝日",,65,https://www.h-l-h.jp,,,,
082031,0870303146,茨城県,土浦市,アサヒサンクリーン在宅介護センター土浦,アサヒサンクリーンザイタクカイゴセンターツチウラ,訪問入浴介護,茨城県土浦市荒川沖西２ー１－１さらさ荒川沖テナント1階003号室,さらさ荒川沖テナント1階003号室,36.030923228941200,140.164939083612640,050-3317-6977,029-828-7832,5080001018392,アサヒサンクリーン株式会社,0870303146,"平日,祝日",,0,https://www.asahi-sun-clean.co.jp/,,,,
082031,0870301736,茨城県,土浦市,アースサポート土浦,アースサポートツチウラ,訪問入浴介護,茨城県土浦市荒川沖321番1,,36.029485400000000,140.161153900000040,029-841-8422,029-841-8433,2011001027780,アースサポート株式会社,0870301736,"平日,土曜日,祝日",水曜日、日曜日、12月30日～1月3日を除く,0,https://www.earthsupport.co.jp/,,,,
082040,0870401106,茨城県,古河市,てるます,テルマス,訪問入浴介護,茨城県古河市関戸1630-8,,36.192098810891050,139.752867135195860,0280-23-1258,0280-23-1268,6050001019954,株式会社スピリットリンク,0870401106,"平日,土曜日,祝日",祝日が日曜日となる場合は休日とする。,25,https://www.spiritlink-terumasu.com,,,,
082040,0870400132,茨城県,古河市,ニチイケアセンター古河,ニチイケアセンターコガ,訪問入浴介護,茨城県古河市古河643-1,,36.190086400000000,139.714862199999970,0280-30-5152,0280-30-7155,3010001025868,株式会社　ニチイ学館,0870400132,"平日,土曜日,祝日",,0,http://www.nichiigakkan.co.jp,,,,
082058,0870500139,茨城県,石岡市,ウエルシア介護サービス石岡,ウエルシアカイゴサービスイシオカ,訪問入浴介護,茨城県石岡市石岡2280-2,,36.201883300000000,140.285572499999940,0299-35-5588,0299-22-5558,6050001015937,ウエルシア介護サービス株式会社,0870500139,"平日,土曜日,祝日",年末年始（12月31日～1月3日）は休業,0,https://www.welcia-kaigo.co.jp,,,,
082058,0870500873,茨城県,石岡市,アースサポート石岡,アースサポートイシオカ,訪問入浴介護,茨城県石岡市石岡１丁目１０番地７,,36.191042500000000,140.282078700000060,0299-22-6066,0299-22-6067,2011001027780,アースサポート株式会社,0870500873,"平日,土曜日,祝日",木曜日、日曜日、12/30～1/3を除く,0,https://www.earthsupport.co.jp/,,,,
082155,0871500047,茨城県,北茨城市,北茨城市社協介護センター「のぞみ」,キタイバラキシシャキョウカイゴセンターノゾミ,訪問入浴介護,茨城県北茨城市華川町臼場187-74,,36.789097500000000,140.745769100000000,0293-43-5361,0293-43-5395,8050005007425,社会福祉法人北茨城市社会福祉協議会,0871500047,平日,,,http//www.kitaibas-syakyo.jp,,,,
082163,0871600409,茨城県,笠間市,笠間市社会福祉協議会訪問入浴介護事業所,カサマシシャカイフクシキョウギカイホウモンニュウヨクカイゴジギョウショ,訪問入浴介護,茨城県笠間市笠間４３６４－２,,36.375013894245875,140.249836137998730,0296-73-5650,0296-73-5601,4050005002768,社会福祉法人笠間市社会福祉協議会,0871600409,"平日,土曜日,日曜日,祝日",,0,http://www.kasama-syakyou.jp/,,,,
082163,0871601019,茨城県,笠間市,ウエルシア介護サービス友部,ウエルシアカイゴサービストモベ,訪問入浴介護,茨城県笠間市東平2丁目10-3,,36.348158200000000,140.302124200000000,0296-71-4886,0296-71-4887,6050001015937,ウエルシア介護サービス株式会社,0871601019,"平日,土曜日,祝日",,0,https://www.welcia-kaigo.co.jp/,,,,
082171,0871700639,茨城県,取手市,すわっと,スワット,訪問入浴介護,茨城県取手市米ノ井121-2,,35.925415583572740,140.027958019887170,0297-84-1555,0297-84-1557,9050001030660,株式会社スワット,0871700639,"平日,土曜日,祝日",,0,,,,,
082171,0871700621,茨城県,取手市,アサヒサンクリーン在宅介護センター取手,アサヒサンクリーンザイタクカイゴセンタートリデ,訪問入浴介護,茨城県取手市新町3-1-21取手新町ビル１階,取手新町ビル１階,35.897578777431430,140.060744133511100,050-3317-6975,0297-85-5076,5080001018392,アサヒサンクリーン株式会社,0871700621,"平日,祝日",,0,https://www.asahi-sun-clean.co.jp,,,,
082171,0871700530,茨城県,取手市,セントケア取手訪問入浴センター,セントケアトリデホウモンニュウヨクセンター,訪問入浴介護,茨城県取手市新町3丁目2-8菊地ビルE号室,菊地ビルE号室,35.897566680710504,140.059185501831370,0297-77-8588,0297-70-6322,5050001030350,セントケア茨城株式会社,0871700530,"平日,土曜日,祝日",,0,http://www.saint-care.com,,,,
082198,0871900676,茨城県,牛久市,ニチイケアセンター牛久南,ニチイケアセンターウシクミナミ,訪問入浴介護,茨城県牛久市南3-20-2,,35.970079300000000,140.150074200000060,029-878-5035,029-878-5038,3010001025868,株式会社ニチイ学館,0871900676,"平日,土曜日,祝日",居宅サービス計画により、休業日であってもサービスの提供を行う場合がある。,0,http://www.nichiigakkan.co.jp,,,,
082198,0871900130,茨城県,牛久市,ウエルシア介護サービス牛久,ウエルシアカイゴサービスウシク,訪問入浴介護,茨城県牛久市神谷5-1-1,,35.964435500000000,140.155459800000020,029-871-5918,029-871-4138,6050001015937,ウエルシア介護サービス株式会社,0871900130,"平日,土曜日,祝日",毎週日曜日、年始（1月1日～1月3日）は休業,0,http://www.twelcia-kaigo.co.jp/,,,,
082201,0872002894,茨城県,つくば市,医療法人善心会訪問入浴サービスステーションつくば,イリョウホウジンゼンシンカイホウモンニュウヨクサービスステーションツクバ,訪問入浴介護,茨城県つくば市手代木３０２番地２・２階,,53.412910000000000,-8.243889999999964,０２９－８３６－６５５７,０２９－８３６－６５６８,1030005014487,医療法人善心会,0872002894,平日,,0,https://zenshinkai.jp/,,,,
082201,0872002951,茨城県,つくば市,アサヒサンクリーン在宅介護センターつくば,アサヒサンクリーンザイタクカイゴセンターツクバ,訪問入浴介護,茨城県つくば市島名2298番地(諏訪C12-9)X-STAGE001号室,X-STAGE001号室,36.057839041365630,140.059022204080070,050-3317-6976,029-836-3552,5080001018392,アサヒサンクリーン株式会社,0872002951,"平日,祝日",,0,https://www.asahi-sun-clean.co.jp,,,,
082201,0872002274,茨城県,つくば市,ウィズ訪問入浴介護事業所,ウィズホウモンニュウヨクカイゴジギョウショ,訪問入浴介護,茨城県つくば市大井1728－1,,36.008405237884730,140.136019520569960,029-879-5822,029-879-5893,9050001033408,株式会社ウィズ,0872002274,"平日,土曜日,祝日",,0,http://www.with-you.co.jp,,,,
082201,0872000450,茨城県,つくば市,ウエルシア介護サービスつくば,ウエルシアカイゴサービスツクバ,訪問入浴介護,茨城県つくば市豊里の杜2丁目1-1,,36.100658000000000,140.046602600000030,029-848-2008,029-848-2108,6050001015937,ウエルシア介護サービス株式会社,0872000450,"平日,土曜日,祝日",毎週日曜日、年末年始（1月1日～1月3日）は休業,0,https://www.welcia-kaigo.co.jp/,,,,
082201,0872002043,茨城県,つくば市,アースサポートつくば,アースサポートツクバ,訪問入浴介護,茨城県つくば市みどりの1丁目31番地7,,36.029169299999985,140.054893099999960,029-839-9500,029-839-9501,2011001027780,アースサポート株式会社,0872002043,"平日,祝日",土曜日、日曜日、12/31～1/3を除く,0,https://www.earthsupport.co.jp/,,,,
082210,0872102439,茨城県,ひたちなか市,訪問入浴ほのぼの,ホウモンニュウヨクホノボノ,訪問入浴介護,茨城県ひたちなか市元町1-5,,36.395898538358786,140.524970661867540,029-354-5006,029-276-8822,9050001007592,株式会社介護サポート,0872102439,"平日,土曜日,祝日",,0,,,,,
082210,0872100144,茨城県,ひたちなか市,ニチイケアセンターひたちなか,ニチイケアセンター　ヒタチナカ,訪問入浴介護,茨城県ひたちなか市東石川2-6-10,,36.395651099999990,140.536973100000070,029-354-0841,029-354-0842,3010001025868,株式会社ニチイ学館,0872100144,"平日,土曜日,祝日",居宅サービス計画により、休業日及び営業時間外であってもサービス提供する場合があります。,0,http://www.nichiigakkan.co.jp,,,,
082210,0872101399,茨城県,ひたちなか市,アースサポートひたちなか,アースサポートヒタチナカ,訪問入浴介護,茨城県ひたちなか市東石川2丁目1番13号,,36.395148300000000,140.532965300000000,029-275-4900,029-275-4910,2011001027780,アースサポート株式会社,0872101399,"平日,土曜日,祝日",水曜日、日曜日、12/30～1/3を除く,0,https://www.earthsupport.co.jp/,,,,
082210,0872100342,茨城県,ひたちなか市,ひたちなか介護ステ－ション,ヒタチナカカイゴステ-ション,訪問入浴介護,茨城県ひたちなか市東石川三丁目28-10,,36.389130219848965,140.534182739317320,029-270-1277,029-271-1002,5050001056239,株式会社らいふアシスト,0872100342,"平日,土曜日,祝日",,30,https://www.h-l-h.jp,,,,
082228,0872200084,茨城県,鹿嶋市,ニチイケアセンター　鹿嶋,ニチイケアセンターカシマ,訪問入浴介護,茨城県鹿嶋市鉢形台2-1-3三廣ビル2階,三廣ビル2階,35.962036800000000,140.646770999999940,0299-90-8061,0299-90-8065,3010001025868,株式会社ニチイ学館,0872200084,"平日,土曜日,祝日",居宅サービス計画により、休業日、営業時間外であっても、サービスの提供を行う場合がある。,0,http://www.nichiigakkan.co.jp,,,,
082228,0872200456,茨城県,鹿嶋市,ウエルシア介護サービス鹿嶋,ウエルシアカイゴサービスカシマ,訪問入浴介護,茨城県鹿嶋市宮中字東山289-1,,35.962749700000000,140.642802500000020,0299-85-1778,0299-85-1808,6050001015937,ウエルシア介護サービス株式会社,0872200456,"平日,土曜日,祝日",毎週日曜日、年始（1月1日～1月3日）は休業,0,https://www.welcia-kaigo.co.jp,,,,
082252,0873100853,茨城県,常陸大宮市,ごぜんやま訪問入浴サービスセンター,ゴゼンヤマホウモンニュウヨクサービスセンター,訪問入浴介護,茨城県常陸大宮市野口平146-1,,36.558103200000000,140.338338400000000,0295-55-3155,0295-54-2550,3011805000882,社会福祉法人博友会,0873100853,"平日,土曜日,祝日",,0,http://www.hakuyukai-sfg.com/,,,,
082261,0872600127,茨城県,那珂市,ウエルシア介護サービス那珂,ウエルシアカイゴサービスナカ,訪問入浴介護,茨城県那珂市竹ノ内3-7-3,,36.447559300000000,140.501966499999980,029-352-0588,029-352-0589,6050001015937,ウエルシア介護サービス株式会社,0872600127,"平日,土曜日,祝日",年末年始（12/31～1/3）は休業,0,https://www.welcia-kaigo.co.jp/,,,,
082279,0870600236,茨城県,筑西市,ウエルシア介護サービス下館,ウエルシアカイゴサービスシモダテ,訪問入浴介護,茨城県筑西市下野殿795-1,,36.270172000000000,139.971593599999980,0296-45-5407,0296-45-5408,6050001015937,ウエルシア介護サービス株式会社,0870600236,"平日,土曜日,祝日",日曜日、年末年始（12月31日～1月3日）は休業,119,https://www.welcia-kaigo.co.jp/,,,,
082325,0875200792,茨城県,神栖市,こころ訪問入浴介護サービス,ココロホウモンニュウヨクカイゴサービス,訪問入浴介護,茨城県神栖市日川字石塚4419番,,35.859699100000000,140.699546000000050,0299-96-0173,0299-96-8207,6050001020508,開発基礎工事株式会社,0875200792,"平日,土曜日",,35,,,,,
082341,0875400301,茨城県,鉾田市,ウエルシア介護サービス鉾田,ウエルシアカイゴサービスホコタ,訪問入浴介護,茨城県鉾田市新鉾田2-11-1,,36.155938000000000,140.522029400000000,0291-34-1135,0291-34-1136,6050001015937,ウエルシア介護サービス株式会社,0875400301,"平日,土曜日,祝日",,0,https://www.welcia-kaigo.co.jp/,,,,
092011,0970107884,栃木県,宇都宮市,訪問入浴介護さわやか（平成３０年度新規指定事業所）,ホウモンニュウヨクカイゴサワヤカ,訪問入浴介護,栃木県宇都宮市中岡本町２８２３－４３,,36.611686000000000,139.943204299999930,０２８－６６６－８０７１,０２８－６６６－８０７６,6060001002067,株式会社ジェイピー,0970107884,"平日,祝日",,,,,,,
092011,0970100020,栃木県,宇都宮市,ニチイケアセンター宇都宮,ニチイケアセンターウツノミヤ,訪問入浴介護,栃木県宇都宮市城東2-26-40,,36.551662089235750,139.906190768600480,028-651-3322,028-614-8033,3010001025868,株式会社ニチイ学館,0970100020,"平日,土曜日,祝日",,0,http://www.nichiigakkan.co.jp,,,,
092011,0970100335,栃木県,宇都宮市,株式会社　陽光ヘルプ,カブシキガイシャヨウコウヘルプ,訪問入浴介護,栃木県宇都宮市今宮3-7-11,,36.515291400000000,139.864421399999970,028-659-3516,028-659-7516,4060001004619,株式会社陽光ヘルプ,0970100335,"平日,土曜日,祝日",「-」,0,http://www.youkou-help.com,,,,
092011,0970103008,栃木県,宇都宮市,アースサポート宇都宮,アースサポートウツノミヤ,訪問入浴介護,栃木県宇都宮市戸祭三丁目5番3号,,36.573859978192090,139.869316516146880,028-624-3011,028-624-2133,2011001027780,アースサポート株式会社,0970103008,"平日,土曜日,祝日",水曜日、日曜日・12/30～1/3を除く,0,https://www.earthsupport.co.jp/,,,,
092011,0970108353,栃木県,宇都宮市,ツクイ宇都宮,ツクイウツノミヤ,訪問入浴介護,栃木県宇都宮市鶴田町739-15,,36.555436700000020,139.856430800000000,028-649-1313,028-649-1314,1020001136162,株式会社ツクイ,0970108353,"平日,土曜日,祝日",,0,http：//www.tsukui.net,,,,
092029,0970200218,栃木県,足利市,特別養護老人ホーム　義明苑,トクベツヨウゴロウジンホーム　ギメイエン,訪問入浴介護,栃木県足利市久保田町１２２３番地,,36.295618800000010,139.494951000000010,0284-73-4600,0284-73-2666,2060005006274,社会福祉法人美明会,0970200218,平日,-,5,https://www.mimeikai.com/,,,,
092037,0970300471,栃木県,栃木市,丸光ケア訪問入浴栃木,マルミツケアホウモンニュウヨクトチギ,訪問入浴介護,栃木県栃木市箱森町50番15号,,36.397163605377590,139.727209943316670,0282-20-6176,0282-20-2271,6060001016587,丸光ケアサービス株式会社,0970300471,"平日,祝日",,0,https://marumitsu-care.co.jp/,,,,
092045,0970402293,栃木県,佐野市,ＳＯＭＰＯケア　佐野　訪問入浴,ソンポケア　サノ　ホウモンニュウヨク,訪問入浴介護,栃木県佐野市浅沼町836番地,,36.312335999999990,139.593378700000020,0283-20-5010,0283-20-5159,1260001015656,ＳＯＭＰＯケア株式会社,0970402293,"平日,祝日",サービス提供時間は、事前に居宅介護支援事業者等により計画された居宅サービス計画書に基づくものとします。,0,,,,,
092045,0970401170,栃木県,佐野市,丸光ケア訪問入浴佐野,マルミツケアホウモンニュウヨクサノ,訪問入浴介護,佐野市富岡町229番地12号,,36.317474200000000,139.589984400000050,0283-27-3243,0283-20-6270,6060001016587,丸光ケアサービス株式会社,0970401170,"平日,祝日",,0,https://marumitsu-care.co.jp/,,,,
092045,0970401501,栃木県,佐野市,アースサポート佐野,アースサポートサノ,訪問入浴介護,栃木県佐野市大橋町3236番地8,,36.311185100000000,139.564558900000060,0283-22-9211,0283-22-9411,2011001027780,アースサポート株式会社,0970401501,"平日,土曜日,祝日",木曜日、日曜日、12月30日から1月3日を除く,0,https://www.earthsupport.co.jp/,,,,
092045,0970402426,栃木県,佐野市,特定非営利活動法人ケアフラッグ幸,トクテイヒエイリカツドウホウジンケアフラッグサイワイ,訪問入浴介護,葛生東２丁目8番15号,,36.406284558628030,139.612104299336240,0283-86-4561,0283-85-4562,9060005007745,特定非営利活動法人ケアフラッグ幸,0970402426,平日,,,http://www.careflag-saiwai.com/,,,,
092053,0970500898,栃木県,鹿沼市,丸光ケア訪問入浴鹿沼,マルミツケアホウモンニュウヨクカヌマ,訪問入浴介護,栃木県栃木県鹿沼市千渡1893-1,,36.567379075088574,139.775603626627830,0289-74-5528,0289-60-3357,6060001016587,丸光ケアサービス株式会社,0970500898,"平日,祝日",ただし営業時間外であっても必要が生じた場合は、サービスの提供を行うことがある。,0,https://marumitsu-care.co.jp/,,,,
092061,0970600193,栃木県,日光市,訪問入浴介護ひかりの里,ホウモンニュウヨクカイゴヒカリノサト,訪問入浴介護,日光市今市1086-2,,36.724892100000005,139.697792700000040,0288-30-3915,0288-30-3912,2060005002570,社会福祉法人大恵会,0970600193,平日,,0,http://www.taikei.jp,,,,
092088,0970801510,栃木県,小山市,アースサポート小山,アースサポートオヤマ,訪問入浴介護,栃木県小山市東城南5-3-2,,36.316546800000000,139.809332800000000,0285-28-0300,0285-28-0334,2011001027780,アースサポート株式会社,0970801510,"平日,土曜日,祝日",水曜、土曜、日曜、12月30日～1月3日を除く,0,https://www.earthsupport.co.jp/,,,,
092088,0970803227,栃木県,小山市,ウエルシア介護サービス小山,ウエルシアカイゴサービスオヤマ,訪問入浴介護,栃木県小山市城東5丁目2-2海老原ビル1階,海老原ビル1階,36.313664900000000,139.818884900000000,0285-37-9197,0285-37-9198,6050001015937,ウエルシア介護サービス株式会社,0970803227,"平日,祝日",,0,https://www.welcia-kaigo.co.jp/,,,,
092088,0970802898,栃木県,小山市,アスケア訪問入浴　小山,アスケアホウモンニュウヨク　オヤマ,訪問入浴介護,栃木県小山市城東一丁目２番28号北棟１階,北棟１階,36.306929579550190,139.815007028713300,050-3317-6930,0285-37-6721,5080001018392,株式会社ＡＳＣａｒｅ,0970802898,"平日,祝日",,0,https://www.as-care.co.jp/,,,,
092096,0970900908,栃木県,真岡市,ウエルシア介護サービス真岡,ウエルシアカイゴサービスモウカ,訪問入浴介護,栃木県真岡市亀山1丁目6-2磯貝住宅B号,磯貝住宅B号,36.448972600000000,139.988244500000000,0285-81-7988,0285-81-7987,6050001015937,ウエルシア介護サービス株式会社,0970900908,"平日,土曜日,祝日",年末年始（12/31～1/3）は休業,0,https://www.welcia-kaigo.co.jp,,,,
092100,0971001375,栃木県,大田原市,ＳＯＭＰＯケア　大田原　訪問入浴,ソンポケア　オオタワラ　ホウモンニュウヨク,訪問入浴介護,栃木県大田原市薄葉2206番地2金井倉庫付事務所102号,金井倉庫付事務所102号,36.840855400000000,139.961854200000060,0287-26-1381,0287-26-1382,1260001015656,ＳＯＭＰＯケア株式会社,0971001375,"平日,祝日",サービス提供時間は、事前に居宅介護支援事業者等により計画された居宅サービス計画書に基づくものとします。,0,,,,,
092134,0971300595,栃木県,那須塩原市,アースサポート那須,アースサポートナス,訪問入浴介護,栃木県那須塩原市西朝日町16番14号,,36.883123400000000,139.989365700000000,0287-39-1411,0287-39-1410,2011001027780,アースサポート株式会社,0971300595,"平日,土曜日,祝日",日曜日・12/30～1/3を除く,0,http://www.earthsupport.co.jp,,,,
092134,0971301528,栃木県,那須塩原市,なすの訪問入浴介護ステーション,ナスノホウモンニュウヨクカイゴステーション,訪問入浴介護,栃木県那須塩原市緑1丁目8番43号坂本事務所1,坂本事務所1,36.869624466887146,140.006555244071930,0287-46-5770,,4060003002298,Ｏｎｅ－ｏｒ－Ｅｉｇｈｔ合同会社,0971301528,"平日,祝日",,0,https://www.one-or-eight.jp,,,,
093432,0972700306,栃木県,茂木町,指定訪問入浴介護センター　グリーンハウスとちぎ,シテイホウモンニュウヨクカイゴセンター　グリーンハウストチギ,訪問入浴介護,栃木県芳賀郡茂木町茂木63-28,,36.533411900000000,140.191114400000060,0285-64-1150,0285-64-1151,7050005002583,社会福祉法人尚生会,0972700306,"平日,祝日",,0,http://www.shoseikai.com,,,,
102016,1070105000,群馬県,前橋市,株式会社　For　Peace　前橋事業所,カブシキガイシャ　フォー　ピース　マエバシジギョウショ,訪問入浴介護,群馬県前橋市下小出町二丁目38番地1マンション車留夢101号室,マンション車留夢101号室,36.411972800000000,139.065029800000050,027-215-0091,027-215-0092,9070001027721,株式会社　For　Peace,1070105000,"平日,祝日",,90,,,,,
102016,1070106149,群馬県,前橋市,パナケア真中株式会社岩神事業所,パナケアマナカイワガミジギョウショ,訪問入浴介護,群馬県前橋市岩神町2-4-7,,36.402056847438810,139.059385960713120,027-289-2400,027-232-8755,1070001008084,パナケア真中株式会社,1070106149,"平日,土曜日,祝日",,150,http://www.pmanaka.com/,,,,
102016,1070106685,群馬県,前橋市,株式会社アスツグ,カブシキガイシャアスツグ,訪問入浴介護,群馬県前橋市青柳町755-1ハイツフレンド青柳203号,ハイツフレンド青柳203号,36.424762700000000,139.068575900000040,027-289-3580,027-289-3590,3070001032223,株式会社アスツグ,1070106685,"平日,土曜日,祝日",,2,,,,,
102016,1070100357,群馬県,前橋市,明和介護サービスセンター(株)明和工業,メイワカイゴサービスセンターカブシキガイシャメイワコウギョウ,訪問入浴介護,群馬県前橋市前箱田町３９－5,,36.364015400000000,139.050768899999980,027-252-5025,027-252-5013,4070001003264,株式会社明和工業,1070100357,"平日,祝日",,60,,,,,
102016,1070108194,群馬県,前橋市,訪問入浴ステーションこはる,ホウモンニュウヨクステーションコハル,訪問入浴介護,群馬県前橋市堀越町362-3B2階,,36.413531006088874,139.146841673016380,090-5776-8774,027-289-5869,7070001032797,株式会社秋桜,1070108194,"平日,祝日",,0,info@coharu-st.com,,,,
102024,1070201940,群馬県,高崎市,アースサポート高崎,アースサポートタカサキ,訪問入浴介護,群馬県高崎市井野町178番地18,,36.356168000000000,139.022163399999950,027-370-1900,027-370-1901,2011001027780,アースサポート株式会社,1070201940,"平日,祝日",土曜日、日曜日、12月30日～1月3日を除く,0,https://www.earthsupport.co.jp,,,,
102024,1070201536,群馬県,高崎市,トータルケアセンター　まなか訪問入浴サービス,トータルケアセンター　マナカホウモンニュウヨクサービス,訪問入浴介護,群馬県高崎市下中居町109-1,,36.309468300000000,139.036966200000050,027-350-5955,027-347-7533,1070001008084,パナケア真中　株式会社,1070201536,"平日,土曜日,祝日",利用時間等、相談のうえ対応いたします。,130,www.pmanaka.com,,,,
102032,1070302862,群馬県,桐生市,ヒャクノハナ株式会社　ハナの湯桐生事業所,ヒャクノハナカブシキガイシャ　ハナノユキリュウジギョウショ,訪問入浴介護,群馬県桐生市相生町５丁目470-10,,36.415005300000000,139.290311200000020,0277-47-7508,0277-47-7509,8070001030783,ヒャクノハナ株式会社,1070302862,"平日,祝日",,0,http://hyakunohana.com/,,,,
102032,1070302318,群馬県,桐生市,訪問入浴サービス　　いいゆだな,ホウモンニュウヨクサービス　イイユダナ,訪問入浴介護,群馬県桐生市広沢町1-2566-1,,36.390738999999996,139.329598999999970,０２７７－４６－９８２０,０２７７－４６―９８２１,1070005005037,医療法人山育会,1070302318,"平日,祝日",土日祭日、時間外、夜間等　ご相談に応じます。,0,http:www.sanikukai.com,,,,
102041,1070402209,群馬県,伊勢崎市,アースサポート伊勢崎,アースサポートイセサキ,訪問入浴介護,群馬県伊勢崎市今泉町2丁目944番地4号,,36.312289000000000,139.202227799999950,0270-30-1411,0270-30-1410,2011001027780,アースサポート株式会社,1070402209,"平日,祝日",水・土・日曜日、12月30日～1月3日を除く,0,https://www.earthsupport.co.jp,,,,
102041,1070401003,群馬県,伊勢崎市,伊勢崎市社会福祉協議会伊勢崎事業所,イセサキシシャカイフクシキョウギカイイセサキジギョウショ,訪問入浴介護,群馬県伊勢崎市上泉町151番地,,36.310741600000000,139.192032100000000,0270-22-2050,0270-22-2089,7070005004652,社会福祉法人伊勢崎市社会福祉協議会,1070401003,平日,,0,http://ise-shakyo.or.jp/,,,,
102041,1070401789,群馬県,伊勢崎市,訪問入浴くれよん　伊勢崎事業所,ホウモンニュウヨククレヨン　イセサキジギョウショ,訪問入浴介護,群馬県伊勢崎市曲沢町1586,,36.371688416673690,139.253147678678940,0270-50-0211,0270-50-0212,2070001015419,株式会社　くれよん,1070401789,"平日,土曜日,祝日",,0,http://www.kureyon.co.jp/,,,,
102041,1070404361,群馬県,伊勢崎市,アスケア訪問入浴　伊勢崎,アスケアホウモンニュウヨク　イセサキ,訪問入浴介護,群馬県伊勢崎市太田町５５７－４,,36.328011881510990,139.185599624350320,050-3317-6931,0270-75-6753,5080001018392,株式会社ＡＳＣａｒｅ,1070404361,"平日,祝日",,0,https://www.as-care.co.jp/,,,,
102059,1070501547,群馬県,太田市,みづほの里訪問入浴介護事業所,ミヅホノサトホウモンニュウヨクカイゴジギョウショ,訪問入浴介護,群馬県太田市牛沢町156-1,,36.262019600000000,139.358120399999960,0276-38-4426,0276-38-8868,9070005005962,社会福祉法人　同仁会,1070501547,"平日,祝日",特になし,0,http://www.gunma-doujinkai.or.jp,,,,
102059,1070501570,群馬県,太田市,アースサポート太田新井,アースサポートオオタアライ,訪問入浴介護,群馬県太田市新井町520番地18,,36.289030800000000,139.372882099999970,0276-47-2200,0276-47-2201,2011001027780,アースサポート株式会社,1070501570,"平日,祝日",土曜日・日曜日、12月30日～1月3日を除く,0,https://www.earthsupport.co.jp,,,,
102067,1070600596,群馬県,沼田市,ホームケアまつかぜ,ホームケアマツカゼ,訪問入浴介護,群馬県利根郡昭和村糸井１２２３,,36.640775700000006,139.072753900000000,0278-20-1185,0278-60-1663,7070005006979,社会医療法人　輝城会,1070600596,"平日,土曜日,祝日",特になし,0,https://kijokai.or.jp/homecare-matsukaze/,,,,
102075,1070700016,群馬県,館林市,クローバー荘,クローバーソウ,訪問入浴介護,群馬県館林市田谷町１１８７－１,,36.257969800000000,139.578589900000000,0276-77-2230,0276-77-2370,4070005006552,社会福祉法人ポプラ会,1070700016,"平日,土曜日,祝日",利用者の希望時間帯がある場合は、打ち合わせによる。,0,http://www.popurakai.or.jp,,,,
104256,1072600032,群馬県,嬬恋村,社会福祉法人嬬恋村社会福祉協議会,シャカイフクシホウジンツマゴイムラシャカイフクシキョウギカイ,訪問入浴介護,群馬県吾妻郡嬬恋村大字大前1110－1,,36.515187999999990,138.531981900000000,0279-96-1611,0279-96-1656,3070005007493,社会福祉法人　嬬恋村社会福祉協議会,1072600032,"平日,祝日",,8,http://tsumagoi-shakyo.or.jp,,,,
104299,1072600024,群馬県,東吾妻町,あがつま在宅ケアセンター,アガツマザイタクケアセンター,訪問入浴介護,群馬県吾妻郡東吾妻町大字原町705-1,,36.573279900000000,138.826075400000000,0279-68-5488,0279-68-5527,7070005006979,社会医療法人輝城会,1072600024,"平日,祝日",月曜日～金曜日の週５日営業,0,"http://kijokai.or,jp/agatuma-zaitaku/",,,,
105228,1073100099,群馬県,明和町,明和町社会福祉協議会訪問入浴介護事業所,メイワマチシャカイフクシキョウギカイホウモンニュウヨクカイゴジギョウショ,訪問入浴介護,群馬県邑楽郡明和町新里３１１番地１明和町デイサービスセンター内,明和町デイサービスセンター内,36.210266600000000,139.537735800000060,0276-84-5222,0276-84-5275,8070005006549,社会福祉法人明和町社会福祉協議会,1073100099,平日,,0,http://meiwa-syakyo.or.jp/,,,,
105252,1073100073,群馬県,邑楽町,社会福祉法人邑楽町社会福祉協議会,シャカイフクシホウジンオウラマチシャカイフクシキョウギカイ,訪問入浴介護,群馬県邑楽郡邑楽町中野１３４１－１,,36.269508800000000,139.448214499999950,0276-88-2408,0276-88-7620,2070005005960,社会福祉法人邑楽町社会福祉協議会,1073100073,"平日,祝日",,,http://oura-syakyo.jimdo.com/,,,,
111015,1176515607,埼玉県,さいたま市西区,コスモ訪問入浴サービス,コスモホウモンニュウヨクサービス,訪問入浴介護,さいたま市西区飯田309-1,,35.894146797035340,139.582538413760660,048-871-8117,048-871-8228,9030001117476,ユニヴェールケア株式会社,1176515607,"平日,土曜日,祝日",,0,,,,,
111023,1170300105,埼玉県,さいたま市北区,ふくしのまち大宮,フクシノマチオオミヤ,訪問入浴介護,さいたま市北区櫛引町2-271-1川善ビル2-A,川善ビル2-A,35.918701399999996,139.609677599999940,048-664-7781,048-664-7782,3030001071027,株式会社　福祉の街,1170300105,"平日,土曜日,祝日",特になし,105,http://www.youism.co.jp,,,,
111023,1176521142,埼玉県,さいたま市北区,ラ・メール訪問入浴さいたま,ラ・メールホウモンニュウヨクサイタマ,訪問入浴介護,埼玉県さいたま市北区本郷町112白石ビル2階,白石ビル2階,35.937983500000000,139.626036100000000,048-871-6066,048-871-6034,1030001158759,ラ・メール訪問入浴株式会社,1176521142,"平日,祝日",年末年始　12/31～1/3　年末年始休暇,,,,,,
111023,1176509188,埼玉県,さいたま市北区,アスケア訪問入浴　大宮,アスケアホウモンニュウヨク　オオミヤ,訪問入浴介護,埼玉県さいたま市北区東大成町二丁目642番地2SunriseⅢ　A号室,SunriseⅢ　A号室,35.934096086050126,139.614285859608230,050-3317-6963,048-856-9832,5080001018392,株式会社ＡＳＣａｒｅ,1176509188,"平日,祝日",,0,https://www.as-care.co.jp/,,,,
111040,1176520144,埼玉県,さいたま市見沼区,SKYハート,スカイハート,訪問入浴介護,丸ケ崎1071ハロービズストレージ大宮丸ケ崎１,,35.958345210008154,139.655019624271230,048-876-8286,048-876-8287,3030001099092,株式会社オースリーアイ,1176520144,"平日,土曜日,祝日",ご利用時間等につきましては、ご相談にて対応可能,0,https://hp.kaipoke.biz/574/,,,,
111040,1170300352,埼玉県,さいたま市見沼区,ハピネスケア株式会社　大宮営業所,ハピネスケアカブシキガイシャ　オオミヤエイギョウショ,訪問入浴介護,埼玉県さいたま市見沼区南中野５７,,35.904897077023570,139.659176293254060,048-688-8601,048-688-8602,5030001006939,ハピネスケア株式会社,1170300352,"平日,土曜日,祝日",ご利用時間につきましては、ご相談にて対応可能,150,http://www.hapiness-care.co.jp,,,,
111058,1176500971,埼玉県,さいたま市中央区,アースサポート北浦和,アースサポートキタウラワ,訪問入浴介護,埼玉県さいたま市中央区新中里1丁目3番3号,,35.870650200000010,139.637068799999950,048-834-8511,048-834-8510,2011001027780,アースサポート株式会社,1176500971,"平日,土曜日,祝日",日曜日・12/30～1/3を除く,0,https://www.earthsupport.co.jp,,,,
111058,1176504999,埼玉県,さいたま市中央区,アスケア訪問入浴　与野,アスケアホウモンニュウヨク　ヨノ,訪問入浴介護,埼玉県さいたま市中央区下落合2-18-12田口ビル,田口ビル,35.883859775161554,139.632225848669980,050-3317-6967,048-762-3900,5080001018392,株式会社ＡＳＣａｒｅ,1176504999,"平日,祝日",,0,https://www.as-care.co.jp/,,,,
111066,1170100349,埼玉県,さいたま市桜区,ネヲハル　田島,ネヲハル　タジマ,訪問入浴介護,埼玉県さいたま市桜区田島４－９－８,,35.849649700000000,139.632408700000040,048-866-7200,048-865-3480,2030001003047,株式会社ネヲハル,1170100349,"平日,祝日",,0,http://www.neoharu.jp,,,,
111074,1176500351,埼玉県,さいたま市浦和区,ふくしのまち与野,フクシノマチヨノ,訪問入浴介護,埼玉県さいたま市浦和区木崎4-17-1バロンズ木崎202,バロンズ木崎202,35.886521299999984,139.661128400000000,048-827-0510,048-822-1037,3030001071027,株式会社福祉の街,1176500351,"平日,土曜日,日曜日,祝日",特に無し,0,http://www.youism.co.jp,,,,
111082,1176518817,埼玉県,さいたま市南区,ことぶき訪問入浴事業所,コトブキホウモンニュウヨクジギョウショ,訪問入浴介護,白幡3-2-9201,201,35.844390900000000,139.653440200000000,0487178648,0487175626,5030001113842,ＫＴＢＩ株式会社,1176518817,"平日,土曜日,祝日",,40,https://kotobuki-nyuyoku.com/,,,,
111082,1176521001,埼玉県,さいたま市南区,アスケア訪問入浴　浦和,アスケアホウモンニュウヨク　ウラワ,訪問入浴介護,埼玉県さいたま市南区南浦和1丁目1番18号バーズヒル南浦和201号室,バーズヒル南浦和201号室,35.851120700000000,139.665986000000000,050-3508-3409,048-711-2610,5080001018392,株式会社ＡＳＣａｒｅ,1176521001,"平日,祝日",,0,https://www.as-care.co.jp/,,,,
111091,1176503199,埼玉県,さいたま市緑区,ツクイさいたま東浦和,ツクイサイタマヒガシウラワ,訪問入浴介護,埼玉県さいたま市緑区東浦和3－14－3,,35.865298600000000,139.697080199999960,048-810-5346,048-810-5347,1020001136162,株式会社ツクイ,1176503199,"平日,土曜日,日曜日,祝日",,90,http://www.tsukui.net,,,,
111104,1176506382,埼玉県,さいたま市岩槻区,アスケア訪問入浴　岩槻,アスケアホウモンニュウヨク　イワツキ,訪問入浴介護,埼玉県さいたま市岩槻区東岩槻4丁目1番地9YSビル1階101号室,YSビル1階101号室,35.962955738023830,139.711840117340020,050-3317-6968,048-748-5368,5080001018392,株式会社ＡＳＣａｒｅ,1176506382,"平日,祝日",,0,https://www.as-care.co.jp/,,,,
112011,1170401663,埼玉県,川越市,ふくしのまち川越,フクシノマチカワゴエ,訪問入浴介護,埼玉県川越市小仙波町３－６－８,,35.918093600000000,139.494706500000000,049-228-7811,049-228-7812,3030001071027,株式会社　福祉の街,1170401663,"平日,土曜日,祝日",特に無し,0,http://www.youism.co.jp,,,,
112011,1170400541,埼玉県,川越市,エミール川越　訪問入浴介護事業所,エミールカワゴエホウモンニュウヨクカイゴジギョウショ,訪問入浴介護,埼玉県川越市砂新田1-13-15,,35.886417100000000,139.488433500000040,049-249-0620,049-248-6688,2030001086075,株式会社エミール介護センター,1170400541,"平日,土曜日,祝日",特定の感染症がある場合は、最後の時間帯となります。,0,http://www.emile-group.com/,,,,
112011,1170402638,埼玉県,川越市,アースサポート川越,アースサポートカワゴエ,訪問入浴介護,埼玉県川越市仙波町2丁目15番地1,,35.908569900000000,139.490313000000010,049-229-5200,049-229-5311,2011001027780,アースサポート株式会社,1170402638,"平日,土曜日,祝日",日曜日・12/30～1/3を除く,0,https://www.earthsupport.co.jp/,,,,
112011,1170402414,埼玉県,川越市,アスケア訪問入浴　川越,アスケアホウモンニュウヨク　カワゴエ,訪問入浴介護,川越市新宿町2-4-1オフィスアヴニール2A号室,オフィスアヴニール2A号室,35.903110414691724,139.484176396514360,050-3317-6933,049-226-0026,5080001018392,株式会社ＡＳＣａｒｅ,1170402414,"平日,祝日",,0,https://www.as-care.co.jp/,,,,
112020,1173138585,埼玉県,熊谷市,訪問入浴きぼう,ホウモンニュウヨクキボウ,訪問入浴介護,埼玉県熊谷市新堀1058番地2,,36.180593500000000,139.324377800000000,080-4610-1943,048-538-7549,9030005020305,非営利活動法人希望の椰子,1173138585,平日,,0,esperanza2011.com,,,,
112020,1173102003,埼玉県,熊谷市,アースサポート熊谷,アースサポートクマガヤ,訪問入浴介護,埼玉県熊谷市籠原南1丁目1番地,,36.173325500000000,139.330859599999940,048-530-6700,048-530-6901,2011001027780,アースサポート株式会社,1173102003,"平日,土曜日,祝日",金曜日、日曜日、12月30日～1月3日を除く,0,https://www.earthsupport.co.jp,,,,
112020,1173100742,埼玉県,熊谷市,ふくしのまち熊谷,フクシノマチクマガヤ,訪問入浴介護,熊谷市肥塚６４１－１,,36.163763900000000,139.393365200000060,048-529-2940,048-529-2941,3030001071027,株式会社　福祉の街,1173100742,"平日,土曜日,祝日",特に無し,0,http://www.youism.co.jp,,,,
112020,1113103835,埼玉県,熊谷市,医療法人　善心会　訪問入浴サービスステーション,イリョウホウジン　ゼンシンカイ　ホウモンニュウヨクサービスステーション,訪問入浴介護,埼玉県熊谷市柿沼３３４番地１,,36.172701600000000,139.383607300000000,048-501-5733,048-523-1811,1030005014487,医療法人善心会,1113103835,平日,,0,http://zensinkai.web.fc2.com/,,,,
112020,1173103019,埼玉県,熊谷市,アスケア訪問入浴　熊谷,アスケアホウモンニュウヨク　クマガヤ,訪問入浴介護,埼玉県熊谷市曙町１丁目４ＯＭレジデンス熊谷１０Ｂ号室,ＯＭレジデンス熊谷１０Ｂ号室,36.137702120743310,139.390455897607440,050-3317-6956,048-522-6872,5080001018392,株式会社ＡＳＣａｒｅ,1173103019,"平日,祝日",,0,https://www.as-care.co.jp/,,,,
112038,1170208423,埼玉県,川口市,株式会社ケアサービス　訪問入浴　川口,カブシキガイシャ　ケアサービス　ホウモンニュウヨク　カワグチ,訪問入浴介護,埼玉県川口市西青木3-10-7　エスポワール小陽202,,35.819532943233890,139.713001909897100,048-229-8332,048-229-8363,8010801003671,株式会社ケアサービス,1170208423,"平日,土曜日,祝日",,0,https://www.care.co.jp/office/hn_kawaguchi,,,,
112038,1170202327,埼玉県,川口市,アースサポート川口,アースサポートカワグチ,訪問入浴介護,埼玉県川口市幸町2丁目14番27号,,35.806726900000000,139.719771600000060,048-258-7611,048-258-7612,2011001027780,アースサポート株式会社,1170202327,"平日,土曜日,祝日",日曜日・12/30～1/3を除く,0,https://www.earthsupport.co.jp,,,,
112038,1170207441,埼玉県,川口市,株式会社大起エンゼルヘルプ　川口ケアセンター,カブシキガイシャダイキエンゼルヘルプ　カワグチケアセンター,訪問入浴介護,埼玉県川口市芝園町3番12号棟101,12号棟101,35.833935700000000,139.683351899999930,048-269-7008,048-268-0081,1011501007291,株式会社大起エンゼルヘルプ,1170207441,"平日,土曜日,日曜日,祝日",365日年中無休でサービスを提供しています。,5,http://www.enzeru.co.jp/,,,,
112038,1170200040,埼玉県,川口市,ハピネスケア株式会社川口営業所,ハピネスケアカブシキガイシャカワグチエイギョウショ,訪問入浴介護,埼玉県川口市芝樋ノ爪2-14-23F,,35.834980736659860,139.688612004597160,048-264-1170,048-269-8665,5030001006939,ハピネスケア株式会社,1170200040,"平日,土曜日,祝日",利用時間につきましては、ご相談にて対応可能。,90,http://www.hapiness-care.co.jp,,,,
112038,1170200560,埼玉県,川口市,アスケア訪問入浴　川口,アスケアホウモンニュウヨク　カワグチ,訪問入浴介護,川口市柳崎５丁目１８－８サンフラワーカトウ１０２号室,サンフラワーカトウ１０２号室,35.860547474735654,139.703076212877080,050-3317-6935,048-262-5066,5080001018392,株式会社ＡＳＣａｒｅ,1170200560,"平日,祝日",,0,https://www.as-care.co.jp/,,,,
112062,1173700087,埼玉県,行田市,緑風苑訪問入浴サービス,リョクフウエンホウモンニュウヨクサービス,訪問入浴介護,埼玉県行田市佐間2-2-18,,36.131606202322870,139.466626939156580,048-578-7257,048-578-8966,6030005014037,社会福祉法人　清幸会,1173700087,"平日,祝日",,42,http://www.seikoukai.com,,,,
112062,1173700061,埼玉県,行田市,株式会社　エミール行田訪問入浴介護事業所,カブシキガイシャ　エミールギョウダホウモンニュウヨクカイゴジギョウショ,訪問入浴介護,埼玉県行田市持田2-15-14,,36.134515100000000,139.435656399999970,048-554-4338,048-554-4490,2030001086075,エミール介護センター,1173700061,"平日,土曜日,祝日",感染症がある場合は、最後のお時間帯となります。,0,http://www.emile-group.com/,,,,
112071,1174900116,埼玉県,秩父市,株式会社福祉の街　ふくしのまち秩父,カブシキガイシャフクシノマチ　フクシノマチチチブ,訪問入浴介護,埼玉県秩父市野坂町1-20-33　K'Sノサカ1F,,35.989456112773250,139.084665437639930,0494-21-3294,0494-21-3295,3030001071027,株式会社福祉の街,1174900116,"平日,土曜日,祝日",特になし,70,https://www.saint-care.com/youism/,,,,
112089,1172501726,埼玉県,所沢市,アースサポート所沢,アースサポートトコロザワ,訪問入浴介護,埼玉県所沢市並木3丁目1番地6,,35.800885199999996,139.469182199999980,04-2993-0200,04-2993-0211,2011001027780,アースサポート株式会社,1172501726,"平日,土曜日,祝日",日曜日・12/30～1/3を除く,0,https://www.earthsupport.co.jp,,,,
112089,1172500017,埼玉県,所沢市,ニチイケアセンター所沢,ニチイケアセンタートコロザワ,訪問入浴介護,所沢市荒幡１９５－１,,35.779901700000000,139.451337200000000,04-2929-4550,04-2929-4433,3010001025868,株式会社ニチイ学館,1172500017,"平日,土曜日,祝日",居宅サービス計画により、営業時間以外であってもサービスの提供を行なう場合がある。,0,http://www.nichiigakkan.co.jp,,,,
112089,1172501122,埼玉県,所沢市,アスケア訪問入浴　所沢,アスケアホウモンニュウヨク　トコロザワ,訪問入浴介護,埼玉県所沢市旭町５－６鹿野川ビル１階,鹿野川ビル１階,35.790861001415560,139.474586906713500,050-3317-6936,04-2993-1506,5080001018392,株式会社ＡＳＣａｒｅ,1172501122,"平日,祝日",,0,https://www.as-care.co.jp/,,,,
112097,1172600718,埼玉県,飯能市,アースサポート飯能,アースサポートハンノウ,訪問入浴介護,埼玉県飯能市大字中山320番地1,,35.860033000000000,139.322487100000000,042-974-9900,042-974-9910,2011001027780,アースサポート株式会社,1172600718,"平日,土曜日,祝日",日曜日・12/30～1/3を除く,0,https://www.earthsupport.co.jp/,,,,
112101,1173800598,埼玉県,加須市,株式会社　エミール加須訪問入浴介護事業所,カブシキガイシャ　エミールカゾホウモンニュウヨクカイゴジギョウショ,訪問入浴介護,埼玉県加須市花崎北2-2-10花咲コーポ　101,花咲コーポ　101,36.112560238895290,139.634942089629280,0480-66-1500,0480-66-1200,2030001086075,株式会社エミール介護センター,1173800598,"平日,土曜日,祝日",,0,http://www.emile-group.com/,,,,
112101,1173801315,埼玉県,加須市,アスケア訪問入浴　加須,アスケアホウモンニュウヨク　カゾ,訪問入浴介護,埼玉県加須市花崎１丁目２３－１０,,36.107632843671176,139.633212929753650,050-3317-6957,0480-31-8421,5080001018392,株式会社ＡＳＣａｒｅ,1173801315,"平日,祝日",,0,https://www.as-care.co.jp/,,,,
112127,1173300029,埼玉県,東松山市,ふくしのまち東松山,フクシノマチヒガシマツヤマ,訪問入浴介護,東松山市元宿1-31-1,,35.998556000000000,139.397711200000000,0493-31-0303,0493-35-2266,3030001071027,株式会社福祉の街,1173300029,"平日,土曜日,祝日",,0,http://www.youism.co.jp,,,,
112127,1173300730,埼玉県,東松山市,アースサポート東松山,アースサポートヒガシマツヤマ,訪問入浴介護,埼玉県東松山市若松町2丁目2番4号,,36.037110400000010,139.412374199999900,0493-25-6700,0493-25-6701,2011001027780,アースサポート株式会社,1173300730,"平日,土曜日,祝日",木曜日、日曜日、12/30～1/3を除く,0,https://www.earthsupport.co.jp/,,,,
112143,1170801284,埼玉県,春日部市,アースサポート春日部,アースサポートカスカベ,訪問入浴介護,埼玉県春日部市中央1丁目7番7号,,35.978548100000000,139.750100900000000,048-752-8400,048-752-8401,2011001027780,アースサポート株式会社,1170801284,"平日,土曜日,祝日",金曜日・日曜日・12/30～1/3を除く,0,https://www.earthsupport.co.jp,,,,
112143,1170600116,埼玉県,春日部市,ハピネスケア株式会社　春日部営業所,ハピネスケアカブシキガイシャ　カスカベエイギョウショ,訪問入浴介護,埼玉県春日部市梅田本町2-12-4,,35.989182069554710,139.743136386508200,048-755-6180,048-755-6181,5030001006939,ハピネスケア株式会社,1170600116,"平日,土曜日,祝日",ご利用時間につきましては、ご相談にて対応可能。,100,http://www.hapiness-care.co.jp,,,,
112143,1170602088,埼玉県,春日部市,アスケア訪問入浴　春日部,アスケアホウモンニュウヨク　カスカベ,訪問入浴介護,埼玉県春日部市粕壁東二丁目三番４０号グレースヒル橋本　２０２号,グレースヒル橋本　２０２号,35.981957331027580,139.756688537121140,050-3317-6939,048-689-3086,5080001018392,株式会社ＡＳＣａｒｅ,1170602088,"平日,祝日",,0,https://www.as-care.co.jp/,,,,
112151,1172701227,埼玉県,狭山市,ニチイケアセンター狭山西,ニチイケアセンターサヤマニシ,訪問入浴介護,埼玉県狭山市入間川1-7-2シティパル狭山２０１,シティパル狭山２０１,35.855833300000000,139.410821299999950,04-2955-1369,04-2900-1525,3010001025868,株式会社ニチイ学館,1172701227,"平日,土曜日,祝日",,0,http://www.nichiigakkan.co.jp,,,,
112178,1171700055,埼玉県,鴻巣市,株式会社福祉の街　ふくしのまち鴻巣,カブシキガイシャフクシノマチ　フクシノマチ　コウノス,訪問入浴介護,埼玉県鴻巣市滝馬室９２３－２,,36.053806200000000,139.506613099999980,048-543-5848,048-543-7274,3030001071027,株式会社福祉の街,1171700055,"平日,土曜日,祝日",,11,http://www.youism.co.jp,,,,
112178,1171700030,埼玉県,鴻巣市,株式会社　彩香らんど,カブシキガイシャ　サイコウランド,訪問入浴介護,埼玉県鴻巣市箕田２７０番１,,36.076383200000000,139.478310500000020,048-595-3333,048-595-3330,5030001062255,株式会社　彩香らんど,1171700030,"平日,祝日",,0,http://care-net.biz/11/saikouiand,,,,
112178,1171700766,埼玉県,鴻巣市,アースサポート鴻巣,アースサポートコウノス,訪問入浴介護,埼玉県鴻巣市逆川1丁目7番34号,,36.056592200000004,139.509987599999930,048-542-4600,048-542-4611,2011001027780,アースサポート株式会社,1171700766,"平日,土曜日,祝日",木曜日、日曜日、12/30～1/3,0,https://www.earthsupport.co.jp/,,,,
112186,1174500452,埼玉県,深谷市,エミール深谷訪問入浴介護事業所,エミールフカヤホウモンニュウヨクカイゴジギョウショ,訪問入浴介護,深谷市小前田1048番地5,,36.126243870204235,139.221894220638720,048-584-6161,048-584-5115,2030001086075,株式会社　エミール介護センター,1174500452,"平日,土曜日,祝日",,0,http://www.emile-group.com,,,,
112186,1174500742,埼玉県,深谷市,ふくしのまち深谷,フクシノマチ　フカヤ,訪問入浴介護,深谷市岡部２０１６－１,,36.188305100000000,139.244666300000060,048-546-2294,048-546-2295,3030001071027,株式会社福祉の街,1174500742,"平日,土曜日,祝日",特になし,0,http://www.youism.co.jp,,,,
112186,1174601235,埼玉県,深谷市,あねとす訪問入浴,アネトスホウモンニュウヨク,訪問入浴介護,埼玉県深谷市人見１９７５番地,,36.162236100000000,139.264527400000020,048-573-0096,048-572-0187,6030005013955,医療法人好文会,1174601235,"平日,土曜日,祝日",利用者様の体調などの状況に応じ時間を延長する場合もあります。,39,https://homecare.koubunkai.jp/bathing/,,,,
112194,1171600388,埼玉県,上尾市,ふくしのまち上尾,フクシノマチアゲオ,訪問入浴介護,上尾市壱丁目北１０－３,,35.958958601939240,139.570340559135500,048-725-6663,048-725-6664,3030001071027,株式会社　福祉の街,1171600388,"平日,土曜日,祝日",特に無し,0,http://www.youism.co.jp,,,,
112194,1171601287,埼玉県,上尾市,アースサポート上尾,アースサポートアゲオ,訪問入浴介護,埼玉県上尾市中妻2丁目16番地8,,35.981502100000000,139.570288000000000,048-778-1900,048-778-1901,2011001027780,アースサポート株式会社,1171601287,"平日,土曜日,祝日",水曜日・日曜日・12/30～1/3を除く,0,https://www.earthsupport.co.jp/,,,,
112194,1171602152,埼玉県,上尾市,アスケア訪問入浴　上尾,アスケアホウモンニュウヨク　アゲオ,訪問入浴介護,埼玉県上尾市上町１丁目１１－２０伊藤店舗１階,伊藤店舗１階,35.977388726436914,139.590797862888850,050-3317-6953,048-783-4472,5080001018392,株式会社ＡＳＣａｒｅ,1171602152,"平日,祝日",,0,https://www.as-care.co.jp/,,,,
112216,1171800244,埼玉県,草加市,ニチイケアセンター　草加稲荷,ニチイケアセンター　ソウカイナリ,訪問入浴介護,埼玉県草加市稲荷4-4-36,,35.833253800000000,139.823683699999950,048-930-2200,048-930-2211,3010001025868,株式会社　ニチイ学館,1171800244,"平日,祝日",休業日：日曜日、年末年始（12/30～1/3）（改行）但し、休業日、営業時間外でも、居宅サービス計画によりサービスを提供する事がある。,0,http://www.nichiigakkan.co.jp,,,,
112216,1171801754,埼玉県,草加市,アースサポート草加,アースサポートソウカ,訪問入浴介護,埼玉県草加市住吉1丁目5番27号,,35.829826100000000,139.804554999999940,048-921-1511,048-921-1512,2011001027780,アースサポート株式会社,1171801754,"平日,土曜日,祝日",水曜日・日曜日・12/30～1/3を除く,0,https://www.earthsupport.co.jp,,,,
112216,1171800756,埼玉県,草加市,ヘルパーステーションさんわ,ヘルパーステーションサンワ,訪問入浴介護,草加市両新田西町438－8,,35.815899241410720,139.786825680287160,048-920-5523,048-920-5519,4030002050268,株式会社ｃａｒｅ　ｓｔｏｒｙ,1171800756,"平日,土曜日,祝日",随時対応,0,www.sanwa-group2004.com,,,,
112216,1171803073,埼玉県,草加市,アスケア訪問入浴　草加,アスケアホウモンニュウヨク　ソウカ,訪問入浴介護,埼玉県草加市吉町５－４－１高橋貸事務所１階,高橋貸事務所１階,35.820387414302225,139.805241767428000,050-3317-6960,048-954-6652,5080001018392,株式会社ＡＳＣａｒｅ,1171803073,"平日,祝日",,0,https://www.as-care.co.jp/,,,,
112224,1170800658,埼玉県,越谷市,ふくしのまち越谷,フクシノマチコシガヤ,訪問入浴介護,埼玉県越谷市千間台西５－１４－４,,35.928093000000000,139.765411800000000,048－970－6294,048－970－6295,3030001071027,株式会社　福祉の街,1170800658,"平日,土曜日,祝日",,0,https://www.youism.jp/,,,,
112224,1170802639,埼玉県,越谷市,アースサポート越谷,アースサポートコシガヤ,訪問入浴介護,埼玉県越谷市南越谷3丁目18番12号,,35.877144400000000,139.788102200000020,048-963-5400,048-963-5401,2011001027780,アースサポート株式会社,1170802639,"平日,土曜日,祝日",水曜日、日曜日、12/30～1/3を除く,0,https://www.earthsupport.co.jp/,,,,
112224,1170800021,埼玉県,越谷市,株式会社大起エンゼルヘルプ越谷ケアセンター,カブシキガイシャダイキエンゼルヘルプコシガヤケアセンター,訪問入浴介護,埼玉県越谷市川柳町1丁目166-1,,35.875267000000000,139.807181099999980,048-990-6755,048-990-6759,1011501007291,株式会社大起エンゼルヘルプ,1170800021,"平日,土曜日,祝日",,0,,,,,
112224,1170805285,埼玉県,越谷市,訪問入浴　もあな,ホウモンニュウヨク　モアナ,訪問入浴介護,埼玉県越谷市東越谷4丁目3-15フェリーチェ越谷104,フェリーチェ越谷104,35.899412000000000,139.796524200000000,048-984-7430,048-984-7431,9030001066343,株式会社ブランドール,1170805285,"平日,祝日",利用者の住所地によって調整する場合がある。,,,,,,
112224,1170800856,埼玉県,越谷市,アスケア訪問入浴　越谷,アスケアホウモンニュウヨク　コシガヤ,訪問入浴介護,埼玉県越谷市南越谷四丁目２番地１２ハーモニーハイツ第３,ハーモニーハイツ第３,35.876242363316470,139.787690922270170,050-3317-6951,048-969-7762,5080001018392,株式会社ＡＳＣａｒｅ,1170800856,"平日,祝日",,0,https://www.as-care.co.jp/,,,,
112241,1171902008,埼玉県,戸田市,アスケア訪問入浴　戸田,アスケアホウモンニュウヨク　トダ,訪問入浴介護,埼玉県戸田市川岸２丁目７番８号大友事務所１階,大友事務所１階,35.804274174023384,139.684249515955900,050-3317-6962,048-229-2357,5080001018392,株式会社ＡＳＣａｒｅ,1171902008,"平日,祝日",,0,https://www.as-care.co.jp/,,,,
112275,1172100032,埼玉県,朝霞市,あさか訪問入浴介護事業所,アサカホウモンニュウヨクカイゴジギョウショ,訪問入浴介護,岡3-17-53,,35.808800296897610,139.605054429497600,048-469-2056,048-469-2067,7030001044796,株式会社埼玉ライフケアサービス,1172100032,"平日,土曜日,祝日",,72,http://www.saitama-lcs.co.jp/,,,,
112283,1172200311,埼玉県,志木市,アースサポート志木,アースサポートシキ,訪問入浴介護,埼玉県志木市本町3丁目5番29号,,35.828106700000000,139.573017500000000,048-485-3200,048-485-3211,2011001027780,アースサポート株式会社,1172200311,"平日,土曜日,祝日",日曜日・12/30～1/3を除く,0,https://www.earthsupport.co.jp/,,,,
112283,1172201004,埼玉県,志木市,訪問入浴彩たま介護サービス,ホウモンニュウヨクサイタマカイゴサービス,訪問入浴介護,埼玉県志木市幸町4-5-3,,35.819460000000000,139.562271400000000,048-424-5626,048-424-5110,6030001153978,はっぴーはぴねす株式会社,1172201004,"平日,土曜日,日曜日,祝日",,5,http://hp.kaipoke.biz/0z4/index.html,,,,
112291,1172300525,埼玉県,和光市,株式会社　愛和　和光営業所,カブシキカイシャ　アイワ　ワコウエイギョウショ,訪問入浴介護,埼玉県和光市本町１５－３５　２Ｆ,,35.785991053929955,139.609529912303170,048-475-9015,048-468-3770,7011801000107,株式会社　愛和,1172300525,"平日,祝日",祝日は通常通り営業(祝日が土曜日、日曜日の場合は休み）,0,http://aiwa-fukushi.com,,,,
112305,1175100211,埼玉県,新座市,ふれあい広場　入浴サービス　りぼん,フレアイヒロバ　ニュウヨクサービス　リボン,訪問入浴介護,埼玉県新座市東北2-29-12,,35.821988000000000,139.572756600000050,048-473-1675,048-471-3827,7030001046124,株式会社　ふれあい広場,1175100211,"平日,祝日",土曜、日曜、年末年始(１２月３1日から１月３日まで),50,http://www.fureai-hiroba.co.jp/,,,,
112305,1175101227,埼玉県,新座市,アスケア訪問入浴　新座,アスケアホウモンニュウヨク　ニイザ,訪問入浴介護,埼玉県新座市大和田１－１７－３ファーストコート１０２,ファーストコート１０２,35.806995563488880,139.555918683686170,050-3317-6952,048-487-8616,5080001018392,株式会社ＡＳＣａｒｅ,1175101227,"平日,祝日",,0,https://www.as-care.co.jp/,,,,
112321,1170900300,埼玉県,久喜市,ふくしのまち久喜,フクシノマチクキ,訪問入浴介護,埼玉県久喜市本町3-8-33,,36.065542300000000,139.668437800000000,0480254855,0480254856,3030001071027,株式会社福祉の街,1170900300,"平日,土曜日,祝日",特に無し,100,https://www.youism.jp,,,,
112372,1171200726,埼玉県,三郷市,アスケア訪問入浴　三郷,アスケアホウモンニュウヨク　ミサト,訪問入浴介護,埼玉県三郷市早稲田３－７－１パークサイド早稲田Ⅲ１階１０２号室,パークサイド早稲田Ⅲ１階１０２号室,35.850009255524970,139.885877835495960,050-3317-6978,048-951-2904,5080001018392,株式会社ＡＳＣａｒｅ,1171200726,"平日,祝日",,0,https://www.as-care.co.jp/,,,,
112461,1176600425,埼玉県,白岡市,アスケア訪問入浴　白岡,アスケアホウモンニュウヨク　シラオカ,訪問入浴介護,埼玉県白岡市千駄野７７４－３ShiraokaApartment　Ｂ号室,ShiraokaApartment　Ｂ号室,36.017379700000000,139.671500200000000,050-3508-9006,0480-53-8900,5080001018392,株式会社ＡＳＣａｒｅ,1176600425,"平日,祝日",,0,https://www.as-care.co.jp/,,,,
113247,1172401299,埼玉県,三芳町,株式会社　はーとふる・ファイン,カブシキガイシャ　ハートフル・ファイン,訪問入浴介護,埼玉県入間郡三芳町藤久保８９－５リエス鶴瀬103,リエス鶴瀬103,35.845267700000000,139.529900600000020,049-293-9664,049-293-9671,8030001123269,株式会社　はーとふる・ファイン,1172401299,"平日,土曜日,祝日",,,,,,,
113263,1172400549,埼玉県,毛呂山町,株式会社　福祉の街　ふくしのまち西入間,カブシキガイシャ　フクシノマチニシイルマ,訪問入浴介護,埼玉県入間郡毛呂山町長瀬720-25,,35.939831500000000,139.322799799999980,049-276-6660,049-276-6661,3030001071027,株式会社　福祉の街,1172400549,"平日,土曜日,祝日",特に無し,0,http://www.youism.co.jp/,,,,
114651,1171102088,埼玉県,松伏町,にこりんの湯　笑,ニコリンノユ　ワラ,訪問入浴介護,埼玉県北葛飾郡松伏町松伏2432－1,,35.924680479488370,139.814938341664120,048－991－4788,048－991－4766,1030001095663,株式会社リライアブルパーソンズ,1171102088,"平日,土曜日",,0,https://reliable-persons.com,,,,
121011,1270102575,千葉県,千葉市中央区,アースサポート千葉中央,アースサポートチバチュウオウ,訪問入浴介護,千葉県千葉市中央区今井2丁目18番17号,,35.578898300000000,140.127689199999960,043-208-4300,043-208-4311,2011001027780,アースサポート株式会社,1270102575,"平日,土曜日,祝日",日曜日・12/30～1/3を除く,0,https://www.earthsupport.co.jp/,,,,
121011,1270104860,千葉県,千葉市中央区,アサヒサンクリーン在宅介護センターちば,アサヒサンクリーンザイタクカイゴセンターチバ,訪問入浴介護,千葉市中央区春日2-21-14ザ・ウエスト店舗,ザ・ウエスト店舗,35.621356046418050,140.102943922401200,050-3317-6998,043-302-1271,5080001018392,アサヒサンクリーン株式会社,1270104860,"平日,祝日",,0,https://www.asahi-sun-clean.co.jp,,,,
