都道府県コード又は市町村コード,No,都道府県名,市区町村名,事業所名,事業所名カナ,サービスの種類,住所,方書（ビル名等）,緯度,経度,電話番号,FAX番号,法人番号,法人の名称,事業所番号,利用可能曜日,利用可能曜日特記事項,定員,URL,高齢者の方と障害者の方が同時一体的に利用できるサービス,介護保険の通常の指定基準を満たしている,障害福祉の通常の指定基準を満たしている,備考
011011,0190100297,北海道,札幌市中央区,認知症対応型デイサービスファミリーケア桑園,ニンチショウタイオウガタデイサービスファミリーケアソウエン,認知症対応型通所介護,札幌市中央区北四条西十五丁目1番地1第2コアレックスビル2階,第2コアレックスビル2階,43.063622800000000,141.332464299999970,011-533-4446,011-533-4448,,株式会社ファミリーケア北海道,0190100297,"平日,土曜日,日曜日,祝日",18時以降は延長加算対応,0,http://www.familycare-hokkaido.jp/,,,,
011011,0190100040,北海道,札幌市中央区,信寿園デイサービスセンター,シンジュエンデイサービスセンター,認知症対応型通所介護,札幌市中央区南8条西10丁目1035-5,,43.049947000000000,141.343858500000000,011-552-3033,011-552-3004,3430005000577,社会福祉法人秀寿会,0190100040,"平日,土曜日,祝日",,0,http://www.hokubu-g.co.jp/,,,,
011011,0190100990,北海道,札幌市中央区,デイサービスももいろはーと,デイサービスモモイロハート,認知症対応型通所介護,札幌市中央区北4条西14丁目1-57ステラガーデン1階,ステラガーデン1階,43.063774900000006,141.334926700000000,011-522-7505,011-522-5293,4430001079045,株式会社Ｎハートネットワーク,0190100990,"平日,土曜日,日曜日,祝日",,0,http://hp.kaipoke.biz/341/,,,,
011029,0170201446,北海道,札幌市北区,デイサービスこんふぉーる,デイサービスコンフォール,認知症対応型通所介護,札幌市北区新川西3条3丁目12番10号,,43.125594199999990,141.284973199999970,011-769-5011,011-765-3148,9430002037113,有限会社コンフォール,0170201446,"平日,土曜日,祝日",,12,http://connforu.com/,,,,
011029,0190201277,北海道,札幌市北区,デイサービスもみじ,デイサービスモミジ,認知症対応型通所介護,北海道札幌市北区屯田6条10丁目6番23号,,43.136954300000000,141.319935100000070,011-774-2028,011-774-2028,4430001032144,株式会社ケアセンター,0190201277,"平日,土曜日,日曜日,祝日",,0,https://www.tonden-furusato.com,,,,
011029,0190200998,北海道,札幌市北区,デイサービスセンターもえんち篠路,デイサービスセンターモエンチシノロ,認知症対応型通所介護,北海道札幌市北区篠路10条1丁目1番1号ウェルフェアMOE,ウェルフェアMOE,43.157905500000000,141.353428900000040,011-771-8878,011-771-7555,3450001009224,株式会社萌福祉サービス,0190200998,"平日,祝日",ー,0,http://www.moe-fukushi.com/,,,,
011029,0190200626,北海道,札幌市北区,デイサービスセンター昔茶屋,デイサービスセンタームカシチャヤ,認知症対応型通所介護,北海道札幌市北区屯田７条５丁目２－２０,,43.136521400000000,141.334159199999930,011-775-7005,011-775-7006,1430005011782,社会福祉法人三草会,0190200626,"平日,土曜日,祝日",,0,http://www.sansoukai-welfare.jp/spr_mukashichaya.html,,,,
011029,0190200337,北海道,札幌市北区,デイサービスセンター　こころ,デイサービスセンター　ココロ,認知症対応型通所介護,札幌市北区屯田6条6丁目4番45号　グループホーム丸心　内,,43.135390900000000,141.333009299999960,011-774-8006,011-299-6528,8430002041900,有限会社丸心,0190200337,"平日,土曜日,日曜日,祝日",年末年始（12月29日～1月3日）希望により相談に応じる。（改行）送迎の関係から通常9時30分より17時の時間帯でサービス提供を行っています。,6,https://marushin.care,,,,
011029,0190201269,北海道,札幌市北区,デイサービス　かえで,デイサービス　カエデ,認知症対応型通所介護,北海道札幌市北区屯田9条9丁目6番6号,,43.144831500000000,141.324666699999970,011-775-7600,011-775-7601,4430001032144,株式会社ケアセンター,0190201269,"平日,土曜日,日曜日,祝日",,0,http://www.tonden-furusato.com/,,,,
011037,0190200204,北海道,札幌市東区,ニチイケアセンター元町,ニチイケアセンターモトマチ,認知症対応型通所介護,北海道札幌市東区北25条東20丁目5-15,,43.096395300000000,141.383091299999930,011-789-2791,011-789-2792,,株式会社　ニチイ学館,0190200204,平日,,,http://www.nichiigakkan.co.jp,,,,
011037,0190200816,北海道,札幌市東区,デイサービスセンターいきいき栄,デイサービスセンターイキイキサカエ,認知症対応型通所介護,北海道札幌市東区北42条東5丁目3番1号,,43.111107828014220,141.352459058366430,011-742-7000,011-742-7711,1430001027964,株式会社オストジャパングループ,0190200816,"平日,祝日",,0,http://www.ost-japan.com,,,,
011037,0190201467,北海道,札幌市東区,共用デイいきいき栄,キョウヨウデイイキイキサカエ,認知症対応型通所介護,北海道札幌市東区北42条東5丁目3番1号,,43.111070100000000,141.352482800000000,011-742-7777,011-742-7711,1430001027964,株式会社オストジャパングループ,0190201467,"平日,土曜日,祝日",,0,http://www.ost-japan.com,,,,
011037,0170200141,北海道,札幌市東区,大友恵愛園　デイサービスセンター,オオトモケイアイエン,認知症対応型通所介護,北海道札幌市東区北17条東5丁目2-5,,43.082926800000000,141.359266400000020,011-721-5565,011-751-1711,3430005000536,社会福祉法人大友恵愛会,0170200141,"平日,祝日",なし,12,http://www.ootomokeiaien.or.jp,,,,
011037,0190200634,北海道,札幌市東区,デイサービスセンター　きずな,デイサービスセンターキズナ,認知症対応型通所介護,北海道札幌市東区北35条東28丁目9－11,,43.099686010731440,141.393328632227740,011-787-1853,011-789‐5615,1430005011782,社会福祉法人　三草会,0190200634,"平日,土曜日,祝日",12月31日～1月3日は営業しておりません。,4,http://www.sansoukai-welfare.jp/spr_kizuna.html,,,,
011045,0190500611,北海道,札幌市白石区,ごう内科デイサービスセンター,ゴウナイカデイサービスセンター,認知症対応型通所介護,札幌市白石区栄通21丁目１番16号,,43.023699600000000,141.440490299999960,011－850－5060,011ー850－5001,,医療法人　孝佑会,0190500611,"平日,土曜日,日曜日,祝日",,0,http://gonaika.com/,,,,
011045,0190501627,北海道,札幌市白石区,ごう内科デイサービスセンター,ゴウナイカデイサービスセンター,認知症対応型通所介護,北海道札幌市白石区栄通21丁目1番16号,,43.023715287091440,141.440490299999940,011-850-5060,011-850-5001,8430005012725,医療法人孝友会,0190501627,"平日,土曜日,祝日",,0,http://gonaika.com/,,,,
011045,0190501296,北海道,札幌市白石区,デイサービスいきいき,デイサービスイキイキ,認知症対応型通所介護,北海道札幌市白石区北郷9条3丁目3番1号,,43.070127400000000,141.421403100000020,011-875-8011,011-875-8013,1430001027964,株式会社オストジャパングループ,0190501296,"平日,土曜日,祝日",,,,,,,
011061,0170500177,北海道,札幌市南区,ドリームハウス認知症対応型通所介護事業所,ドリームハウスニンチショウタイオウガタツウショカイゴジギョウショ,認知症対応型通所介護,北海道札幌市南区北ノ沢1819-9,,43.008680999999996,141.323357300000000,011-572-7877,011-572-3222,7430005000607,社会福祉法人前田記念福祉会,0170500177,"平日,土曜日,祝日",,12,http://maedakinen.org/,,,,
011061,0190500033,北海道,札幌市南区,和幸園芸術の森デイサービスセンターのえるの森,ワコウエンゲイジュツノモリデイサービスセンターノエルノモリ,認知症対応型通所介護,札幌市南区石山東7丁目1-55,,42.952185500000000,141.344327100000000,011-594-2077,011-594-2088,7430005000680,社会福祉法人　北海道ハピニス,0190500033,"平日,土曜日,祝日",,12,http://hapinisu.com,,,,
011061,0170502934,北海道,札幌市南区,デイサービスふるさと,デイサービスフルサト,認知症対応型通所介護,北海道札幌市南区石山東7丁目11番7号,,42.953243099999990,141.344940800000000,0115921775,0115921275,5430002035079,株式会社優和サービス,0170502934,平日,,0,https://yuuwa-kaigo.com/,,,,
011070,0170401095,北海道,札幌市西区,サテラホーム　デイサービス,サテラホーム　デイサービス,認知症対応型通所介護,北海道札幌市西区発寒１１条４丁目５番１号,,43.093978100000000,141.290649600000050,011-667-8787,011-667-0755,,サテラホーム有限会社,0170401095,"平日,土曜日,日曜日,祝日",,3,,,,,
011070,0170401707,北海道,札幌市西区,デイサービス喜望蓬,デイサービスキボウホウ,認知症対応型通所介護,北海道札幌市西区発寒10条2丁目4番10号,,43.089154000000000,141.296596499999960,011-664-6100,011-664-6100,7430001030343,株式会社ライフ・クリエイト,0170401707,"平日,土曜日,祝日",,6,http://kibouhou8.jp,,,,
011070,0190400572,北海道,札幌市西区,デイサービスせーじゅ,デイサービスセージュ,認知症対応型通所介護,北海道札幌市西区山の手４条５丁目３－２２複合施設せーじゅ１F,複合施設せーじゅ１F,43.070528044741950,141.293024142852800,011-618-7111,011-618-7111,2430005001452,医療法人耕仁会,0190400572,"平日,土曜日,祝日",年末年始（１２月３０日～１月３日）はお休みさせて頂きます。,5,https://www.sapporo-ohta.or.jp/DS,,,,
011070,0190400440,北海道,札幌市西区,デイサービスそらいろ,デイサービスソライロ,認知症対応型通所介護,北海道札幌市西区西野７条３丁目１番２０号ケアタウン徳洲会札幌西,ケアタウン徳洲会札幌西,43.066400300000000,141.272819000000030,011-665-2390,011-666-3335,9040001021495,株式会社ケアネット徳洲会,0190400440,"平日,土曜日,祝日",令和23年3月より土曜営業再開,12,http://care-net.co.jp/,,,,
011088,0190502252,北海道,札幌市厚別区,ＳＯＭＰＯケア　札幌青葉　デイサービス,ソンポケア　サッポロアオバ　デイサービス,認知症対応型通所介護,北海道札幌市厚別区青葉町13丁目5番5号,,43.032707900000000,141.480208500000000,011-802-1005,011-802-1006,1260001015656,ＳＯＭＰＯケア株式会社,0190502252,"平日,土曜日,祝日",なし,12,http://www.sompocare.com,,,,
011088,0190501478,北海道,札幌市厚別区,デイサービス　くらしさ厚別,ディサービスクラシサアツベツ,認知症対応型通所介護,札幌市厚別区厚別西4条4丁目5-2,,43.052839000000000,141.464119900000010,011-893-9043,011-893-9044,7430002038781,株式会社元気な介護,0190501478,"平日,土曜日,祝日",なし,0,http://genkinakaigo.co.jp,,,,
011088,0170500268,北海道,札幌市厚別区,厚別栄和荘デイサービスセンター,アツベツエイワソウデイサービスセンター,認知症対応型通所介護,北海道札幌市厚別区厚別町山本750番地6号,,43.058543900000000,141.462566899999960,011-896-5014,011-896-5015,7430005000540,社会福祉法人栄和会,0170500268,"平日,土曜日,祝日",定休日以外の休み：年末年始（12月31日～1月2日）,12,https://www.eiwakai.or.jp,,,,
011088,0170503619,北海道,札幌市厚別区,デイサービスもみじの家,デイサービスモミジノイエ,認知症対応型通所介護,北海道札幌市厚別区もみじ台西３丁目１－８,,43.033663300000000,141.486066199999980,011-899-7733,011-899-7700,7430005000557,社会福祉法人協立いつくしみの会,0170503619,"平日,土曜日,祝日",祝祭日の場合であっても曜日が月～土曜日の場合は営業しています。,12,http://www.karipu.jp/,,,,
011088,0190502591,北海道,札幌市厚別区,デイサービスすずらん荘,デイサービススズランソウ,認知症対応型通所介護,北海道札幌市厚別区厚別西3条5丁目5番25号,,43.052211000000000,141.469358600000000,011-894-3000,011-894-3100,6430002019881,有限会社ラピネス,0190502591,"平日,土曜日,日曜日,祝日",,0,,,,,
011096,0190400655,北海道,札幌市手稲区,愛の家グループホーム札幌星置,アイノイエグループホームサッポロホシオキ,認知症対応型通所介護,北海道札幌市手稲区星置3条9丁目８－１１,,43.139749900000000,141.190748800000000,011-688-3390,011-688-3391,5430001028174,メディカル・ケア・サービス北海道株式会社,0190400655,平日,,0,gh-080@mcsg.co.jp,,,,
011096,0190400291,北海道,札幌市手稲区,デイサービスいろはな,デイサービスイロハナ,認知症対応型通所介護,札幌市手稲区曙8条1丁目1－16,,43.140171899999984,141.240111999999950,011-624-7757,011-624-7768,2430001061211,株式会社いろはなケアサービス,0190400291,"平日,土曜日,祝日",,10,http://irohana.co.jp/,,,,
011096,0190400556,北海道,札幌市手稲区,認知症対応型デイサービスセンターもえんち手稲,ニンチショウタイオウガタデイサービスセンターモエンチテイネ,認知症対応型通所介護,北海道札幌市手稲区明日風３丁目11-1認知症対応型デイサービスセンターもえんち手稲,認知症対応型デイサービスセンターもえんち手稲,43.138671600000010,141.223701900000040,011-691-3888,011-691-3666,3450001009224,株式会社萌福祉サービス,0190400556,"平日,祝日",,12,http://moe-hukushi.com/,,,,
011096,0190400473,北海道,札幌市手稲区,手稲渓仁会デイサービス織彩,テイネケイジンカイデイサービスシキサイ,認知症対応型通所介護,北海道札幌市手稲区前田2条10丁目1番7号,,43.120830100000000,141.249259899999970,011-685-3328,011-685-3880,5430005000583,社会福祉法人渓仁会,0190400473,"平日,土曜日,祝日",,12,http://www.keijinkai.com/tsumugi/,,,,
011096,0170401442,北海道,札幌市手稲区,デイサービスつつじ,デイサービスツツジ,認知症対応型通所介護,札幌市手稲区金山1条2丁目1番39号,,43.129405500000000,141.206773399999970,011-686-7700,011-686-7800,7430001026283,株式会社道央ケアセンター,0170401442,"平日,祝日",なし,0,http://douou-care.co.jp/,,,,
011100,0110317328,北海道,札幌市清田区,鈴木内科デイサービスセンターきよた,スズキナイカデイサービスセンターキヨタ,認知症対応型通所介護,北海道札幌市清田4条2丁目10-25鈴木内科デイサービスセンターきよた,鈴木内科デイサービスセンターきよた,42.997627100000000,141.430790000000000,011-882-4188,011-882-4188,,鈴木内科デイサービスセンターきよた,0110317328,"平日,土曜日,祝日",,,http://www.suzukinaika.or.jp,,,,
011100,0170503916,北海道,札幌市清田区,鈴木内科デイサービスセンターきよたⅡ,スズキナイカデイサービスセンターキヨタツー,認知症対応型通所介護,北海道札幌市清田区清田4条2丁目10-27鈴木内科デイサービスセンターきよたⅡ,鈴木内科デイサービスセンターきよたⅡ,42.997782600000000,141.430489999999960,011-882-2347,011-882-2347,,鈴木内科デイケアセンターきよたⅡ,0170503916,平日,,,http//www.suzukinaika.or.jp,,,,
011100,0190501080,北海道,札幌市清田区,デイサービスゆめいろ,デイサービスユメイロ,認知症対応型通所介護,北海道札幌市清田区里塚２条２丁目４番２１号ケアタウン徳洲会札幌南,ケアタウン徳洲会札幌南,42.989262299999970,141.461529400000020,011-887-8075,011-881-7128,9040001021495,株式会社ケアネット徳洲会,0190501080,"平日,祝日",,12,https://care-net.co.jp/,,,,
011100,0170500284,北海道,札幌市清田区,デイサービスセンター　ノテふるさと,デイサービスセンターノテフルサト,認知症対応型通所介護,札幌市清田区真栄４３４番地６,,42.972199600000000,141.432388599999970,011-885-8822,011-885-5949,3430005000585,社会福祉法人ノテ福祉会,0170500284,"平日,土曜日,祝日",年末年始（12月30日～1月3日）休業,12,http://www.note.or.jp/facilities/details/28/,,,,
011100,0170501233,北海道,札幌市清田区,パストラルデイサービス,パストラルデイサービス,認知症対応型通所介護,札幌市清田区平岡４条３丁目２３－２７グループホームパストラル,グループホームパストラル,43.004449300000000,141.456840000000060,011-887-5227,011-887-5228,8430002033856,有限会社エイチ・ティ・エス,0170501233,"平日,土曜日,日曜日,祝日",,0,http://www.hts-grouphome.com/,,,,
011100,0190500132,北海道,札幌市清田区,シャイニングの森のデイサービス,シャイニングノモリノデイサービス,認知症対応型通所介護,札幌市清田区美しが丘４条７丁目７－１２,,42.976100000000000,141.460094300000040,011-886-1044,011-886-1043,6430002035177,有限会社　シャイニング,0190500132,"平日,土曜日,日曜日,祝日",,6,http://www.totorono-mori.com/,,,,
012025,0191400118,北海道,函館市,ニチイケアセンター函館桔梗,ニチイケアセンターハコダテキキョウ,認知症対応型通所介護,北海道函館市桔梗3丁目22番10号,,41.847854300000010,140.729437500000020,0138-34-5911,0138-34-5912,,株式会社ニチイ学館,0191400118,平日,,3,,,,,
012025,0171401052,北海道,函館市,認知症対応型デイサービス秋桜,ニンチショウタイオウガタデイサービスコスモス,認知症対応型通所介護,北海道函館市宝来町14-25,,41.758016600000000,140.721675300000010,0138-23-7220,0318-23-3221,8440005000266,社会医療法人高橋病院,0171401052,"平日,土曜日,祝日",なし,0,http://takahashi-group.jp/,,,,
012025,0191400282,北海道,函館市,認知症対応型デイサービスまつかわ,ニンチショウタイオウガタデイサービスマツカワ,認知症対応型通所介護,北海道函館市松川町41番17号,,41.787007482917550,140.737195473680120,0138-41-1221,0138-45-1021,1440005000231,医療法人鴻仁会,0191400282,"平日,土曜日,日曜日,祝日",365日サービス実施,0,http://www.fukase.or.jp,,,,
012025,0191400738,北海道,函館市,デイサービスセンター函館あいの里,デイサービスセンターハコダテアイノサト,認知症対応型通所介護,北海道函館市亀田中野町277番地12,,41.852988800000010,140.775459200000000,0138-47-8700,0138-47-4740,3440005000378,社会福祉法人函館光智会,0191400738,平日,,0,http://aino-sato.net,,,,
012025,0191400399,北海道,函館市,認知症対応型デイサービスこうじゅ,ニンチショウタイオウガタデイサービスコウジュ,認知症対応型通所介護,北海道函館市亀田町７番１号,,41.792217300000000,140.734324500000000,0138-41-5100,0138-41-5109,7440005000382,社会福祉法人函館鴻寿会,0191400399,"平日,土曜日,日曜日,祝日",祝日や年末年始等も営業しております。,,http://www5.ncv.ne.jp/~cs-kouju/day.html,,,,
012033,0172000051,北海道,小樽市,認知症対応型デイサービスセンターはる,ニンチショウタイオウガタデイサービスセンターハル,認知症対応型通所介護,小樽市赤岩２丁目１８番２２号,,43.225102500000000,140.993756800000030,0134-31-2271,0134-31-2259,9430005007765,社会福祉法人ノマド福祉会,0172000051,"平日,祝日",,0,https://nomad-haru.com/,,,,
012033,0192000032,北海道,小樽市,デイサービス　朝里山荘,デイサービス　アサリサンソウ,認知症対応型通所介護,小樽市朝里川温泉2丁目694番63号,,43.148559400000000,141.041618100000050,0134-51-5577,0134-51-5578,7430001026283,株式会社道央ケアセンター,0192000032,"平日,祝日",,0,https://www.douou-care.co.jp,,,,
012033,0192000180,北海道,小樽市,デイサービスおたる,デイサービスオタル,認知症対応型通所介護,北海道小樽市稲穂2丁目13番1号道央ケアセンタービル3階,道央ケアセンタービル3階,43.196772300000000,140.997444800000040,0134-27-7001,0134-27-7007,7430001026283,株式会社道央ケアセンター,0192000180,"平日,祝日","冬季休業1/1～1/3、夏季休業8/15,16",0,http://www.douou-care.co.jp,,,,
012041,0192900157,北海道,旭川市,グループホーム　ひまわり,グループホーム　ヒマワリ,認知症対応型通所介護,北海道旭川市錦町18丁目2150番地,,43.791690300000000,142.332359799999950,0166-59-5775,0166-53-5400,,社会福祉法人　群生会,0192900157,"平日,土曜日,日曜日,祝日",,,http://www.gunseikai.jp/,,,,
012041,0172901738,北海道,旭川市,デイサービス　サンシャイン,デイサービス　サンシャイン,認知症対応型通所介護,北海道旭川市北門町21丁目2172-111,,43.796703600000000,142.333581600000000,0166-55-4557,0166-54-9700,,デイサービス　サンシャイン,0172901738,"平日,土曜日,日曜日,祝日",-,,,,,,
012041,0192900207,北海道,旭川市,グループホーム　愛あい,グループホーム　アイアイ,認知症対応型通所介護,旭川市川端町２条５丁目２番３号,,43.781661500000000,142.352336400000000,0166-53-9898,0166-73-6276,,有限会社　ライフサポート,0192900207,"平日,土曜日,日曜日,祝日",,0,,,,,
012041,0192902245,北海道,旭川市,グループホームぞう,グルーウプホーム　ゾウ,認知症対応型通所介護,北海道旭川市末広１条１３丁目２番１０号,,43.816773600000000,142.400426499999980,0166-59-6670,0166-59-6671,,有限会社　ぞう,0192902245,"平日,土曜日,日曜日,祝日",-,,,,,,
012041,0192902229,北海道,旭川市,グループホーム　和が家,グループホーム　ワガヤ,認知症対応型通所介護,北海道旭川市春光台5条3丁目7-24,,43.822057625218410,142.347771688360580,0166-52-0755,0166-52-0785,,有限会社　パートナーステーション,0192902229,"平日,土曜日,日曜日,祝日",,6,http://www.wagaya-gh.com/,,,,
012041,0192902591,北海道,旭川市,認知症対応型通所介護グループホームひだまりの家,ニンチショウタイオウガタツウショカイゴグループホームヒダマリノイエ,認知症対応型通所介護,旭川市神楽4条1丁目2番4号,,43.764749900000000,142.344150000000000,0166-69-2222,0166-63-4700,,有限会社ライフステージ,0192902591,"平日,土曜日,日曜日,祝日",年中無休、だだし事業所指定日を除く。,,https://life-stage.info,,,,
012041,0192900108,北海道,旭川市,デイサービス　ひぐらし,デイサービス　ヒグラシ,認知症対応型通所介護,北海道旭川市神居1条15丁目2-19,,43.755125300000000,142.340966600000000,0166-76-4180,0166-76-4170,7450001005632,株式会社　ケアーズ,0192900108,"平日,土曜日,祝日",利用者の状況により短時間利用も受け入れている。,12,http://www.day-higurashi.com,,,,
012041,0172902421,北海道,旭川市,グループホームひかり,グループホームヒカリ,認知症対応型通所介護,旭川市春光台2条6丁目1番11号,,43.820848000000000,142.365617200000000,0166-51-3088,0166-51-3089,1450002008714,有限会社ひかり,0172902421,"平日,土曜日,日曜日,祝日",,,https://hikari-g.jp/,,,,
012041,0192900256,北海道,旭川市,有限会社オフィスモリヤマ,ユウゲンカイシャオフィスモリヤマ,認知症対応型通所介護,北海道旭川市春光台２条６丁目１番１１,,43.820409143647346,142.365927141803000,0166-51-8787,0166-51-1187,5450002008792,有限会社オフィスモリヤマ,0192900256,"平日,土曜日,日曜日,祝日",土曜日と日曜日と１２月３１日から１月３日まで送迎なし,6,http://gh-hana.com,,,,
012041,0172900318,北海道,旭川市,りんどうの里通所介護事業所,リンドウノサトツウショカイゴジギョウショ,認知症対応型通所介護,北海道旭川市神居町雨紛１７２－２,,43.735812390626730,142.341514632655280,0166-63-3454,0166-63-3000,4450002006054,りんどうの里有限会社,0172900318,"平日,土曜日,祝日",,12,,,,,
012041,0192902070,北海道,旭川市,デイサービスにわとこ,デイサービスニワトコ,認知症対応型通所介護,旭川市東光４条１丁目２番７号,,43.752705100000000,142.389594799999940,0166-74-6471,0166-74-6481,6450001010245,株式会社エルダーサポート,0192902070,"平日,土曜日,祝日",事業所の都合で休業日を変更することがあります。（改行）台風・地震等の自然災害により、ご利用者の安全を確保できない場合は休業することがあります。,0,,,,,
012041,0192902609,北海道,旭川市,デイサービスにわとこの花,デイサービスニワトコノハナ,認知症対応型通所介護,北海道旭川市東光３条２丁目１番６号,,43.753899200000000,142.386850800000000,0166-76-1754,0166-76-1764,6450001010245,株式会社エルダーサポート,0192902609,"平日,土曜日,祝日",事業所の都合で休業日を変更する事があります。（改行）台風・地震等の自然災害により、ご利用者様の安全を確保できない場合は休業する事があります。,0,,,,,
012041,0192902120,北海道,旭川市,スロウラウンジこば,スロウラウンジ　コバ,認知症対応型通所介護,旭川市忠和2条4丁目1－12,,43.781407800000000,142.319092200000000,0166-61-7525,0166-74-5020,6450003000905,合同会社　スロウラウンジ,0192902120,"平日,土曜日,祝日",延長サービス対応,0,http://slow-lounge.net,,,,
012041,0192900298,北海道,旭川市,デイサービスセンターけあさぽ,デイサービスセンターケアサポ,認知症対応型通所介護,旭川市東光４条２丁目２番２１号,,43.752335900000000,142.393433299999970,0166-32-5940,0166-32-5940,9450003000497,合同会社旭川介護サービス,0192900298,平日,,0,,,,,
012041,0192902203,北海道,旭川市,デイサービスあき,デイサービスアキ,認知症対応型通所介護,北海道旭川市秋月３条２丁目２８－２６,,43.789146124422690,142.393482706607070,0166-76-9031,0166-76-9071,9450003000968,合同会社生き活きあさひかわ,0192902203,"平日,土曜日",,0,https://www.facebook.com/ikiiki.asahikawa.aki,,,,
012041,0192902484,北海道,旭川市,認知症対応型通所介護ひだまり,ニンチショウタイオウガタツウショカイゴヒダマリ,認知症対応型通所介護,北海道旭川市神楽4条1丁目3番5号グループホームひだまり,グループホームひだまり,43.764613300000000,142.343849300000000,0166-69-0230,0166-63-3660,3450002008043,有限会社ライフステージ,0192902484,"平日,土曜日,日曜日,祝日",,,http://www.life-stage.info,,,,
012050,0193500030,北海道,室蘭市,認知症対応型デイサービスセンターみたらの杜,ニンチショウタイオウガタデイサービスセンターミタラノモリ,認知症対応型通所介護,室蘭市絵鞆町２丁目２２番３号,,42.334271400000000,140.936958600000020,0143-26-3336,0143-26-3337,,社会福祉法人幸清会,0193500030,"平日,祝日",営業日　月、水、金曜日（改行）年末年始　１２月３０日から１月３日　休み,12,http://www.koseikai-wel.or.jp,,,,
012050,0173500216,北海道,室蘭市,デイサービスセンターかがやき,デイサービスセンターカガヤキ,認知症対応型通所介護,北海道室蘭市東町４丁目２０番８号,,42.341869502280570,141.025758339950580,0143-44-0012,0143-41-2006,1430005009901,社会福祉法人　室蘭福祉事業協会,0173500216,"平日,土曜日,祝日",昭和の日、建国記念日、みどりの日、こどもの日、山の日、秋分の日、勤労感謝の日、建国記念日、春分の日、１２月２９日～１月３日は休日（改行）それ以外の祝日は営業,12,http://muroran-fukushi.com,,,,
012068,0194100194,北海道,釧路市,ニチイケアセンター釧路昭和,ニチイケアセンタークシロショウワ,認知症対応型通所介護,北海道釧路市昭和中央６丁目３１番１８号,,43.030390500000000,144.355064900000000,0154-53-6231,0154-53-6232,,株式会社　ニチイ学館,0194100194,平日,居宅サービス計画により、休業日であってもサービスの提供を行う場合がある。,,http://www.nichiigakkan.co.jp/,,,,
012068,0174100594,北海道,釧路市,デイサービスふれ愛,デイサービスフレアイ,認知症対応型通所介護,釧路市若竹町18-15,,43.001030100000000,144.374844599999960,0154-23-7942,0154-23-7942,7460002005192,有限会社ふれ愛,0174100594,"平日,祝日",ー,0,http://www7b.biglobe.ne.jp/~fureai/,,,,
012068,0194100046,北海道,釧路市,道東勤医協ひまわりいきいきデイサービスセンター,ドウトウキンイキョウヒマワリイキイキデイサービスセンター,認知症対応型通所介護,北海道釧路市堀川町8番43号,,42.998094700000000,144.392856800000000,0154-24-1165,0154-23-7665,2460005000393,医療法人　道東勤労者医療協会,0194100046,"平日,土曜日,祝日",なし,12,http://mint.hokkai.net/doto-kin/,,,,
012068,0194100053,北海道,釧路市,道東勤医協さくらいきいきデイサービスセンター,ドウトウキンイキョウサクライキイキデイサービスセンター,認知症対応型通所介護,北海道釧路市桜ヶ岡2丁目18番7号,,42.966502899999990,144.422484800000000,0154-92-3030,0154-92-5755,2460005000393,社会医療法人道東勤労者医療協会,0194100053,"平日,祝日",,12,http://dotokin-kaigo.com/pdf/office08.pdf,,,,
012076,0194600144,北海道,帯広市,愛の家グループホーム　帯広共栄,アイノイエグループホームオビヒロキョウエイ,認知症対応型通所介護,北海道帯広市西12条南4丁目1-3,,42.926967400000000,143.186095700000000,0155-38-2336,0155-38-2306,,メディカル・ケア・サービス北海道株式会社,0194600144,平日,延長も可能,,http://www.mcsg.co.jp/,,,,
012076,0194600060,北海道,帯広市,愛の家デイサービス帯広西11条,アイノイエデイサービスオビヒロニシジュウイチジョウ,認知症対応型通所介護,北海道帯広市西１１条南15丁目2-1,,42.914349600000000,143.188934600000040,0155-24-6678,0155-24-6679,,MCS北海道株式会社,0194600060,平日,時間延長あり,0,http://mcs-ainoie.com/ins13.html,,,,
012076,0194600078,北海道,帯広市,愛の家ディサービス帯広東12条,アイノイエディサービスオビヒロヒガシ12ジョウ,認知症対応型通所介護,北海道帯広市東12条南4丁目1-75,,42.929263800000000,143.226671700000000,0155-26-3330,,5430001028174,メディカル・ケア・サービス北海道株式会社,0194600078,平日,,3,,,,,
012076,0194600516,北海道,帯広市,愛の家デイサービス帯広若葉,アイノイエデイサービスオビヒロワカバ,認知症対応型通所介護,北海道帯広市西16条南6丁目27－16,,42.902994199999990,143.176316100000000,0155-58-5510,0155-58-5511,,メディカル・ケア・サービス北海道株式会社,0194600516,平日,時間延長あり,0,,,,,
012076,0194600540,北海道,帯広市,デイサービススローライフおびこ,デイサービススローライフオビコ,認知症対応型通所介護,北海道帯広市東四条南20丁目6-4,,42.910079400000000,143.213951899999980,0155-20-3102,0155-22-2919,7430005001448,社会医療法人恵和会,0194600540,"平日,祝日",,12,https://obihiro.keiwakai.jp/obiko,,,,
012076,0194600748,北海道,帯広市,WOODGARDEN,ウッドガーデン,認知症対応型通所介護,帯広市西１６条南６丁目３０－２３,,42.904820476382320,143.176294287255670,0155-35-0031,0155-35-0032,2430001046030,株式会社３ｅｅｅ,0194600748,"平日,土曜日,祝日",,0,https://3eee.co.jp/,,,,
012084,0195003272,北海道,北見市,デイサービス　フルーツ,デイサービス　フルーツ,認知症対応型通所介護,北海道北見市北進町７丁目６-11,,43.804386099999990,143.868350500000000,0157-69-3338,0157-69-3336,,恵和福祉会,0195003272,"平日,祝日",,,http://www.keiwafukushi.jp/,,,,
012084,0195000138,北海道,北見市,デイサービスオンネナイ原野,デイサービスオンネナイゲンヤ,認知症対応型通所介護,北見市留辺蘂町上町119番地10,,43.787480547411945,143.612496417844340,0157-42-5651,0157-42-5652,,有限会社エーデルワイス,0195000138,"平日,土曜日,祝日",,0,http://edelwaice.com,,,,
012084,0195000120,北海道,北見市,デイサービスほのぼの館,デイサービスホノボノカン,認知症対応型通所介護,北海道北見市東相内町１４３－３２,,43.804555000000000,143.817342999999940,0157-36-2947,0157-36-2942,,北見福祉事業サービス株式会社,0195000120,"平日,土曜日,祝日",,0,http://www.kitami294.com/,,,,
012084,0195003256,北海道,北見市,共用型デイサービスほんのりしあわせ館,キョウヨウガタデイサービスホンノリシアワセカン,認知症対応型通所介護,北海道北見市東相内町143-32,,43.804590300000000,143.817051500000000,0157-36-2940,0157-36-2942,,北見福祉事業サービス株式会社,0195003256,"平日,土曜日,日曜日,祝日",,,http//www.kitami294.com/,,,,
012084,0195000070,北海道,北見市,デイサービス夢ふうせんこぶし,デイサービスユメフウセンコブシ,認知症対応型通所介護,北海道北見市西三輪４丁目７２０番地１,,43.799933300000000,143.831631099999980,0157-57-5322,0157-66-1555,5460302004103,株式会社いちい,0195000070,"平日,祝日",なし,0,,,,,
012084,0195003322,北海道,北見市,認知症対応型デイサービス華蓮,ニンチショウタイオウガタデイサービスカレン,認知症対応型通所介護,北海道北見市豊地61番地14,,43.789175000000000,143.846180500000000,0157-33-1356,0157-33-1175,1460302003950,有限会社エーデルワイス,0195003322,"平日,土曜日,祝日",,,https://edelwaice.com/,,,,
012092,0175900083,北海道,夕張市,共用型デイサービスまどか,キョウヨウガタデイサービスマドカ,認知症対応型通所介護,北海道夕張市清水沢宮前町２２番地グループホームまどか,グループホームまどか,42.993923900000000,142.009019800000000,0123-59-2525,0123-59-2502,8430005006917,社会福祉法人清光園,0175900083,"平日,土曜日,日曜日,祝日",,0,http://yubari-seikouen.jp,,,,
012106,0195700018,北海道,岩見沢市,認知症対応型通所介護事業所　野菊,ニンチショウタイオウガタツウショカイゴジギョウショノギク,認知症対応型通所介護,岩見沢市2条東15丁目2番地2,,43.213975800000010,141.782459400000020,0126-25-4165,0126-25-3865,,社会福祉法人緑生会,0195700018,平日,,0,http://www.nogiku.org/,,,,
012114,0155380017,北海道,網走市,いせの里指定通所介護事業所,イセノサトシテイツウショカイゴジギョウショ,認知症対応型通所介護,北海道網走市字潮見１９２番地,,43.998086699999990,144.269118800000000,0152-45-3686,0152-45-3791,3460305001413,社会福祉法人　網走愛育会,0155380017,"平日,土曜日,祝日",,,http://www.isenosato.sakura.ne.jp/,,,,
012114,0195300090,北海道,網走市,社会福祉法人緑明会　グループホーム森の灯りはまなす,シャカイフクシホウジンリョクメイカイ　グループホームモリノアカリハマナス,認知症対応型通所介護,北海道網走市つくしヶ丘3丁目9-1,,43.992997600000000,144.279964899999980,0152-67-7891,0152-67-7893,4460305001610,社会福祉法人緑明会,0195300090,土曜日,土曜日のみの営業となっております（土曜祝日営業）,,http://http://ryokumekaihamanasu.web.fc2.com/,,,,
012114,0175300391,北海道,網走市,社会医療法人明生会　すろー・らいふ台町通所介護,シャカイイリョウホウジンメイセイカイ　スロー・ライフダイマチツウショカイゴ,認知症対応型通所介護,網走市台町２丁目7番4号,,44.016846400000000,144.280858800000030,0152-61-6131,0152-61-6146,6460305001427,社会医療法人明生会,0175300391,"平日,祝日",,12,http://fenneurosurgery.jimdo.com/,,,,
012114,0195300025,北海道,網走市,社会福祉法人　緑明会　よってけ家はまなす駒場,シャカイフクシホウジン　リョクメイカイ　ヨッテケヤハマナスコマバ,認知症対応型通所介護,網走市駒場北６丁目１－２４,,44.000161900000000,144.284717399999980,0152-43-1139,0152-43-1139,4460305001610,社会福祉法人　緑明会,0195300025,"平日,祝日",場合により8：00～20：00まで対応可能。,0,http://morinoakarihamanasu.com/,,,,
012122,0176400018,北海道,留萌市,デイサービスセンターもえんち留萌,デイサービスセンターモエンチルモイ,認知症対応型通所介護,留萌市開運町1丁目2番1号,,43.939145700000000,141.650036300000000,0164-49-2258,0164-49-2278,3450001009224,株式会社萌福祉サービス,0176400018,"平日,日曜日,祝日",,0,http://www.moe-fukusi.com,,,,
012131,0193600038,北海道,苫小牧市,デイサービスくらしさ沼ノ端,デイサービスクラシサヌマノハタ,認知症対応型通所介護,北海道苫小牧市沼ノ端中央2丁目1番42号,,42.671574600000000,141.701964800000000,0144-52-5062,0144-52-5063,7430002038781,株式会社元気な介護,0193600038,"平日,土曜日,日曜日,祝日",,0,http://genkinakaigo.co.jp,,,,
012131,0193600137,北海道,苫小牧市,グループホーム花縁ときわ館,グループホームカエントキワカン,認知症対応型通所介護,苫小牧市ときわ町3丁目4-14,,42.611943700000000,141.511257200000000,0144-61-7811,0144-61-7812,8430002061139,有限会社花縁,0193600137,"平日,土曜日,日曜日,祝日",,,http://gh-kaen.com,,,,
012131,0193600822,北海道,苫小牧市,グループホーム花縁,グループホームカエン,認知症対応型通所介護,苫小牧市澄川町4丁目3－5,,42.616323100000000,141.504572100000000,0144-61-7321,0144-61-7322,8430002061139,有限会社花縁,0193600822,"平日,土曜日,日曜日,祝日",,,http://gh-kaen.com,,,,
012149,0196700108,北海道,稚内市,デイサービスセンターあったか大黒Ⅰ号館,デイサービスセンターアッタカダイコクイチゴウカン,認知症対応型通所介護,北海道稚内市大黒５丁目１０番２３号,,45.394490500000000,141.695241300000000,0162-23-4800,0162-24-6001,4450002011475,有限会社そうせい舎,0196700108,"平日,祝日",,,http://www.attaka-s.jp/,,,,
012149,0176700615,北海道,稚内市,デイサービスセンターあったか大黒館,デイサービスセンターアッタカダイコクカン,認知症対応型通所介護,北海道稚内市大黒５丁目１０番２３号,,45.394490500000000,141.695241300000000,0162-24-2300,0162-24-6001,4450002011475,有限会社そうせい舎,0176700615,平日,,,http://www.attaka-s.jp,,,,
012157,0176100022,北海道,美唄市,びばい社協ふれあいデイサービスセンター,ビバイシャキョウフレアイデイサービスセンター,認知症対応型通所介護,北海道美唄市西3条南3丁目6-2美唄市総合福祉センターぽぷら,美唄市総合福祉センターぽぷら,43.331239800000000,141.854287600000020,0126-63-3581,0126-62-6996,6430005006670,社会福祉法人美唄市社会福祉協議会,0176100022,"平日,祝日",,12,http://www.bibai.com/shakyo/,,,,
012165,0197300023,北海道,芦別市,芦別慈恵園もみじの家,アシベツジケイエンモミジノイエ,認知症対応型通所介護,北海道芦別市旭町28番地,,43.525784600000000,142.197282399999950,0124-22-2566,0124-22-1482,3430005007432,社会福祉法人芦別慈恵園,0197300023,"平日,祝日",,0,http://www.ashibetsu.or.jp,,,,
012173,0191000298,北海道,江別市,認知症デイサービスセンター夢ふうせんみどり,ニンチショウデイサービスセンターユメフウセンミドリ,認知症対応型通所介護,北海道江別市緑町東３丁目１１１－３２,,43.118717900000000,141.542123299999960,011-389-3000,011-389-3388,4430001068394,株式会社エムリンク札幌,0191000298,"平日,土曜日,祝日",,12,http://www.e-mlink.co.jp,,,,
012173,0191000660,北海道,江別市,BRICKSGARDEN,ブリックスガーデン,認知症対応型通所介護,江別市野幌寿町24-6,,43.102408224887880,141.519234808598330,011-385-2010,011-3852012,2430001046030,株式会社３ｅｅｅ,0191000660,"平日,土曜日,祝日",,0,https://3eee.co.jp/,,,,
012173,0191000694,北海道,江別市,認知症対応型デイサービスなないろ,ニンチショウタイオウガタデイサービスナナイロ,認知症対応型通所介護,江別市上江別西町３６番地の２,,43.103202300000000,141.546316600000000,011-375-0790,011-375-0791,4430001092972,株式会社ＨＡＲＥＲＵＬＩＦＥ,0191000694,"平日,土曜日",年末年始は１２月３１日から１月２日まで定休日,,https://www.harerulife.com/,,,,
012181,0197200025,北海道,赤平市,デイサービスセンターのぞみ,デイサービスセンターノゾミ,認知症対応型通所介護,北海道赤平市宮下町３丁目１番地,,43.558884600000000,142.034317399999960,0125-32-7002,0125-32-7003,6430001048873,環境開発株式会社,0197200025,平日,祝日、年末年始の休日を除く。ただし、祝日等のある月は土曜日を営業日に振り替える場合もある。また、ゴールデンウィーク等の長期の休みが続く場合は祝日でも営業日とする。,12,http://www.24de.jp/nozomi/index.html,,,,
012190,0195100102,北海道,紋別市,デイサービスセンター夢ふうせんラポール,デイサービスセンターユメフウセンラポール,認知症対応型通所介護,北海道紋別市落石町5丁目４－１３,,44.358069600000000,143.335837500000020,0158-26-2800,0158-27-5005,1460301004388,株式会社エムリンクオホーツク,0195100102,"平日,土曜日,祝日",土曜日・祭日も営業,0,http://www.e-mlink.co.jp,,,,
012190,0195100078,北海道,紋別市,ミニデイサービス陽だまり,ミニデイサービスヒダマリ,認知症対応型通所介護,北海道紋別市大山町１丁目３４番１７号,,44.339016684461490,143.344183525547780,0158-23-0602,0158-23-3050,5450002013066,有限会社コミュニティ,0195100078,"平日,土曜日,日曜日,祝日",なし,0,http://www4.plala.or.jp/community2004/,,,,
012203,0193200045,北海道,士別市,デイサービスホーム陽だまり,デイサービスホームヒダマリ,認知症対応型通所介護,北海道士別市東５条１１丁目８８３番地７,,44.171490100000000,142.401378799999970,0165-22-2988,0165-23-2987,2450003000660,合同会社コモウェルフェアサポート,0193200045,"平日,祝日",,0,,,,,
012203,0193200185,北海道,士別市,デイサービスほほえみ,デイサービスホホエミ,認知症対応型通所介護,北海道士別市東５条１１丁目８８３－１１,,44.171676200000000,142.401087200000000,0165-26-7253,0165-23-2987,2450003000660,合同会社コモウェルフェアサポート,0193200185,"平日,祝日",,60,,,,,
012211,0173200510,北海道,名寄市,医療法人社団　三愛会　　グループホーム「里の家」,イリョウホウジンシャダン　サンアイカイ　グループホームサトノイエ,認知症対応型通所介護,北海道名寄市西1条南4丁目17番地,,44.352380100000000,142.461742700000060,01654-2-6612,01654-2-6613,,医療法人社団　三愛会,0173200510,"平日,土曜日,日曜日,祝日",,0,http://www.sanai-kai.or.jp,,,,
012211,0193200094,北海道,名寄市,グループホーム「里の家」2号館デイサービス,グループホーム「サトノイエ」ニゴウカンデイサービス,認知症対応型通所介護,北海道名寄市大通北5丁目4番地,,44.361829000000000,142.463366800000020,01654-8-7371,01654-8-7372,6450005002404,医療法人社団　三愛会,0193200094,"平日,土曜日,日曜日,祝日",,,http://www.sanai-kai.or.jp/,,,,
012211,0193200052,北海道,名寄市,株式会社ＦＯＬＬＯＷ　デイサービスセンターあうん,カブシキカイシャフォロー　デイサービスセンターアウン,認知症対応型通所介護,名寄市西１０条北１丁目７４番地７８,,44.357545700000000,142.448485000000000,01654-2-0504,01654-2-0504,6450001007976,株式会社ＦＯＬＬＯＷ,0193200052,"平日,祝日",,0,,,,,
012211,0193200151,北海道,名寄市,株式会社ＦＯＬＬＯＷ　デイサービスセンターあうん２号館,カブシキガイシャフォロー　デイサービスセンターアウンニゴウカン,認知症対応型通所介護,北海道名寄市西３条北７丁目１番地２,,44.363592600000000,142.459419700000000,01654-8-7795,01654-87796,6450001007976,株式会社ＦＯＬＬＯＷ,0193200151,"平日,祝日",,0,,,,,
012220,0196000038,北海道,三笠市,認知症対応型デイサービスセンターつどい,ニンチショウタイオウガタデイサービスセンターツドイ,認知症対応型通所介護,北海道三笠市幌内新栄町352番地,,43.232783000000000,141.885934899999940,01267-2-5801,01267-2-5802,,医療法人社団幾世会,0196000038,"平日,土曜日",,12,http://ikuseikai-hp.jp/,,,,
012238,0194200051,北海道,根室市,ねむろ医院いきいきデイサービスセンター,ネムロイインイキイキデイサービスセンター,認知症対応型通所介護,北海道根室市曙町３丁目３番地,,43.331792600000000,145.596397300000030,0153-22-2563,0153-29-2363,2460005000393,医療法人道東勤労者医療協会,0194200051,"平日,土曜日,祝日",,0,http://www.dotokin-medwel.jp/,,,,
012238,0194200200,北海道,根室市,デイサービスセンターオリオン,デイサービスセンターオリオン,認知症対応型通所介護,北海道根室市友知２９９番地4,,43.330133700000000,145.660014200000000,0153-27-1079,0153-27-1080,4460403000233,合同会社Starrysky,0194200200,"平日,土曜日,祝日",,0,http://hp.kaipoke.biz/ytt/,,,,
012238,0194200184,北海道,根室市,デイサービスいころ,デイサービスイコロ,認知症対応型通所介護,北海道根室市宝林町4-255-13,,43.314254000000000,145.594848900000000,0153-27-7505,0153-27-7506,8460401001122,株式会社舞夢,0194200184,"平日,土曜日,祝日",,0,,,,,
012246,0191100098,北海道,千歳市,デイサービス陽だまり,デイサービスヒダマリ,認知症対応型通所介護,北海道千歳市桂木1丁目,,42.819478603056790,141.624268205668840,0123-27-3281,0123-27-3207,8430005005877,医療法人　資生会,0191100098,"平日,土曜日,祝日",,0,http://www.siseikai.or.jp/,,,,
012246,0191100171,北海道,千歳市,デイサービス花園,デイサービスハナゾノ,認知症対応型通所介護,北海道千歳市花園3丁目8番7号,,42.835331100000000,141.657455199999960,0123-40-1225,0123-40-1226,5430005006085,社会福祉法人晃裕会,0191100171,"平日,土曜日,祝日",,0,http://www.kouyukai-aoba.or.jp,,,,
012262,0197100100,北海道,砂川市,認知症対応型デイサービスセンタープラスワン,ニンチショウタイオウガタデイサービスセンタープラスワン,認知症対応型通所介護,北海道砂川市東1条北12丁目1番3号,,43.504615300000000,141.911911900000000,0125-54-3555,0125-54-3555,6430001063419,野田福祉サービス株式会社,0197100100,"平日,祝日",,0,https://plusone-group.jp/,,,,
012289,0197400088,北海道,深川市,デイサービス福寿草,デイサービスフクジュソウ,認知症対応型通所介護,北海道深川市4条12番６号,,43.720268900000000,142.047908199999940,0164-26-8811,0164-26-8200,7450005001578,社会医療法人アンリー・デュナン会,0197400088,平日,,0,http://www.henry-dunant.or.jp,,,,
012297,0193000106,北海道,富良野市,ふらっくす,フラックス,認知症対応型通所介護,北海道富良野市西麻町１番３号,,43.344244800000000,142.398046900000000,0167-39-0020,0167-39-0031,4450005002133,社会福祉法人富良野あさひ郷,0193000106,"平日,土曜日,祝日",,,https://www.furanoasahigou.or.jp,,,,
012319,0191200245,北海道,恵庭市,デイサービスわくわくサロン,デイサービスワクワクサロン,認知症対応型通所介護,北海道恵庭市本町146番地,,42.882658400000000,141.571724700000000,0123-33-0211,0123-33-0211,1430003005984,合同会社優楽屋,0191200245,"平日,土曜日,祝日",,0,https://osyaberi-salon.org,,,,
012335,0173700303,北海道,伊達市,デイサービスセンターアウル,デイサービスセンターアウル,認知症対応型通所介護,北海道伊達市弄月町233-4,,42.457051700000000,140.884081600000000,0142-21-1150,0142-21-1160,8430002065924,有限会社グッドライフ,0173700303,"平日,祝日",12月30日～1月3日までは年末休暇,10,https://gh-owl.jp/,,,,
012343,0191300045,北海道,北広島市,デイサービストトロの森Ⅱ,デイサービストトロノモリツウ,認知症対応型通所介護,北広島市大曲緑ヶ丘１丁目１４番地２７,,42.978983700000000,141.483684199999970,011-376-2203,011-375-0203,,有限会社　シャイニング,0191300045,"平日,土曜日,祝日",特になし,12,http://www.totorono-mori.com/,,,,
012343,0191300169,北海道,北広島市,グループホームくらしさ北広島,グループホームクラシサキタヒロシマ,認知症対応型通所介護,北海道北広島市大曲南ヶ丘1丁目12-2,,42.969269100000000,141.475110200000000,011-377-9043,011-377-9044,,株式会社元気な介護,0191300169,"平日,土曜日,日曜日,祝日",,0,,,,,
012343,0191300144,北海道,北広島市,医療法人やわらぎデイサービスセンターはなみずき,イリョウホウジンヤワラギデイサービスセンターハナミズキ,認知症対応型通所介護,北海道北広島市共栄町4丁目11番地1,,42.994145300000000,141.562320000000000,011-372-7055,011-375-9975,9430005006908,医療法人やわらぎ,0191300144,"平日,土曜日,日曜日,祝日",,3,http://yawaragi-info.or.jp/,,,,
012343,0171300171,北海道,北広島市,デイサービス雪ぼうし,デイサービスユキボウシ,認知症対応型通所介護,北広島市輪厚704番地31,,42.944338200000000,141.508767700000000,011-377-3914,011-377-3934,4430005004775,医療法人社団翔仁会,0171300171,平日,,3,http://www.shojinkai.or.jp,,,,
012343,0171300189,北海道,北広島市,デイホームさとみ,デイホームサトミ,認知症対応型通所介護,北海道北広島市里見町６丁目５番地１,,42.958487800000000,141.547978500000000,011-372-6363,011-372-6363,3430005004784,社会福祉法人北海長正会,0171300189,"平日,土曜日,祝日",,10,http://www.shionen.or.jp,,,,
012351,0177600202,北海道,石狩市,有限会社　幸慈愛福祉事業振興会,ユウゲンガイシャ　コウジアイフクシジギョウシンコウカイ,認知症対応型通所介護,北海道石狩市花川北６条１丁目６８番地,,43.169967900000000,141.317452900000030,0133-76-2201,0133-76-2203,4430002043941,有限会社幸慈愛福祉事業振興会,0177600202,平日,,0,,,,,
012351,0177600293,北海道,石狩市,デイサービスひなた,デイサービスヒナタ,認知症対応型通所介護,北海道石狩市花川南2条6丁目118番地,,43.146781100000000,141.307991500000070,0133-74-9646,0133-74-9646,1430002044050,有限会社ひなた,0177600293,"平日,土曜日,日曜日,祝日",随時対応、延長制度有り。,3,,,,,
012351,0177600319,北海道,石狩市,愛の家グループホーム石狩花川,アイノイエグループホームイシカリハナカワ,認知症対応型通所介護,北海道石狩市花川４０４－１２,,43.146192300000000,141.310382900000040,0133-72-8870,0133-72-8770,,メディカル・ケア・サービス北海道株式会社,0177600319,"平日,土曜日,日曜日,祝日",,0,http://www.mcsg.co.jp,,,,
012360,0171500564,北海道,北斗市,デイサービスセンターはまなすの里・清川,デイサービスセンターハマナスノサトキヨカワ,認知症対応型通所介護,北斗市野崎１９９－１,,41.855018900000000,140.612747400000000,0138-73-1311,0138-73-1267,5440005000946,社会福祉法人　上磯はまなす,0171500564,"平日,土曜日,日曜日,祝日",-,9,http://www.hamanasunosato.com,,,,
013030,0191000561,北海道,当別町,共用型デイサービスらくらの家・ふとみ,キョウヨウガタデイサービスラクラノイエ・フトミ,認知症対応型通所介護,北海道石狩郡当別町太美南818番地62,,43.187328400000000,141.442318900000000,0133-27-5066,0133-27-5067,2430001042772,株式会社　らくらケア,0191000561,平日,サービス提供時間　月、火、水、木、金曜日（改行）９時３０分から１６時３５分までとする。,,http://www.lacura-g.com,,,,
013455,0191500149,北海道,森町,道南森ロイヤルあじさい,ドウナンモリロイヤルアジサイ,認知症対応型通所介護,茅部郡森町字上台町326-118,,42.106834000000000,140.583314400000060,01374-2-5761,01374-2-5762,,医療法人社団明山会,0191500149,"平日,土曜日,祝日",,12,,,,,
013455,0191513779,北海道,森町,道南森ロイヤルあじさい,ドウナンモリロイヤルアジサイ,認知症対応型通所介護,北海道茅部郡森町字上台町326-118,,42.103731500000000,140.568478400000000,01374-2-5761,01374-2-5762,4011405000068,医療法人財団明理会,0191513779,"平日,土曜日,祝日",,0,,,,,
013617,0171600265,北海道,江差町,グループホーム・なごみ,グループホーム・ナゴミ,認知症対応型通所介護,北海道桧山郡江差町字田沢町492番地3,,41.898880800000000,140.145632999999970,0139-54-5753,0139-54-6753,5440002009932,有限会社グループホーム・和,0171600265,"平日,土曜日,日曜日,祝日",365日利用できます,,,,,,
013617,0191600022,北海道,江差町,デイサービスセンターかもめ荘,デイサービスセンターカモメソウ,認知症対応型通所介護,北海道桧山郡江差町字桧岱２１７番３,,41.869050900000000,140.146356100000050,0139-54-5400,0139-54-5411,7440005002098,社会福祉法人ひのき会,0191600022,"平日,祝日",,12,http://www.hinokikai.or.jp,,,,
013617,0191600014,北海道,江差町,グループホーム・あかり,グループホーム・アカリ,認知症対応型通所介護,北海道檜山郡江差町字田沢町４９２番地８,,41.898828100000000,140.145563499999980,0139-52-3360,0139-54-6753,5440002009932,有限会社グループホーム・和,0191600014,"平日,土曜日,日曜日,祝日",３６５日利用できます,,,,,,
014061,0192500056,北海道,古平町,デイサービスセンター風花,デイサービスセンターカザハナ,認知症対応型通所介護,北海道古平郡古平町浜町６４５番地いきいき生活支援センター風花,いきいき生活支援センター風花,43.258321800000000,140.635095300000000,0135-41-2850,0135-41-2851,8430005008236,社会福祉法人古平福祉会,0192500056,"平日,祝日",年末年始は定休日の状況により変更あり,0,http://www.reimeinosato.jp/,,,,
014079,0192500049,北海道,仁木町,デイサービス仁木やすらぎの里,デイサービスニキヤスラギノサト,認知症対応型通所介護,北海道余市郡仁木町北町８丁目４０番地５,,43.163895503239370,140.771771452253660,0135-32-3586,0135-32-2703,2430005008233,社会福祉法人仁木福祉会,0192500049,"平日,土曜日",,0,,,,,
014087,0172500266,北海道,余市町,グループホームなかじま,グループホームナカジマ,認知症対応型通所介護,北海道余市郡余市町大川町4丁目23番地1,,43.192096600000010,140.793800100000000,0135-30-7200,0135-30-7200,,医療法人社団滋恒会,0172500266,平日,,,http://www15.plala.or.jp/nakajima/,,,,
014087,0172500068,北海道,余市町,デイサービスセンター　フルーツ・シャトーよいち,デイサービスセンター　フルーツ・シャトーヨイチ,認知症対応型通所介護,北海道余市郡余市町黒川町１９丁目１番地２,,43.187276000000000,140.814256900000030,0135-48-6033,0135-22-6974,8430005008087,社会福祉法人　よいち福祉会,0172500068,"平日,祝日",ー,0,http://www.fruit.or.jp,,,,
014087,0192500031,北海道,余市町,共用型指定認知症対応型通所介護事業所フルーツ・シャトーよいち,キョウヨウガタシテイニンチショウタイオウガタツウショカイゴジギョウショフルーツシャトーヨイチ,認知症対応型通所介護,北海道余市郡余市町黒川町１９丁目１－２,,43.187276000000000,140.814256900000030,0135-22-5350,0135-22-6025,8430005008087,社会福祉法人よいち福祉会,0192500031,"平日,土曜日,日曜日,祝日",経過的要介護者、要介護者であって自傷他害などの行為がない方。,0,https://www.fruit.or.jp,,,,
014231,0175800374,北海道,南幌町,デイサービスセンターみどり野,デイサービスセンターミドリノ,認知症対応型通所介護,北海道空知郡南幌町中央2丁目2番1号,,43.058063600000000,141.652508000000000,011-378-7030,011-378-7031,9430005006908,医療法人やわらぎ,0175800374,"平日,祝日",祝祭日は通常サービスにて対応,12,http://yawaragi-info.or.jp/,,,,
014249,0177100328,北海道,奈井江町,デイサービスかわせみ,デイサービスカワセミ,認知症対応型通所介護,北海道空知郡奈井江町字奈井江町161番地,,43.421751551563960,141.885239890737920,0125-65-5811,,5430001048775,株式会社山一山岸商店,0177100328,"平日,土曜日,日曜日,祝日",,12,,,,,
014290,0155880016,北海道,栗山町,デイサービス　おおむらさき,デイサービス　オオムラサキ,認知症対応型通所介護,夕張郡栗山町朝日4丁目9番42号,,43.055246000000000,141.795787400000000,0123-72-6201,0123-72-2601,8430005000531,社会福祉法人　愛全会,0155880016,平日,なし,0,http://www.aizenkai.or.jp/,,,,
014346,0197400013,北海道,秩父別町,共用型指定認知症対応型通所介護事業所べにばら,キョウヨウガタシテイニンチショウタイオウガタツウショカイゴジギョウショベニバラ,認知症対応型通所介護,北海道雨竜郡秩父別町1542番地33,,43.767591000000000,141.955924699999970,0164-33-2677,0164-33-2678,8450005001981,社会福祉法人幸鐘会,0197400013,"平日,土曜日,日曜日,祝日",,0,,,,,
014389,0177400231,北海道,沼田町,沼田町認知症高齢者グループホームなごみ,ヌマタチョウニンチショウコウレイシャ,認知症対応型通所介護,雨竜郡沼田町旭町３丁目５番２９号,,43.806419299999990,141.944653900000050,0164-36-2525,0164-36-2526,,沼田町,0177400231,"平日,祝日",事業所の都合により営業できない場合又は緊急やむをえず土日に営業する場合あり,0,,,,,
014541,0193100385,北海道,当麻町,デイサービス菜の花,デイサービスナノハナ,認知症対応型通所介護,北海道上川郡当麻町４条西３丁目１７番１２号,,43.828607200000000,142.514128900000060,0166-84-7088,0166-84-7068,5450002008826,有限会社サポートセンター元気クラブ,0193100385,"平日,土曜日,日曜日,祝日",,0,http://mintara.org/nanohana/,,,,
014681,0193200078,北海道,下川町,グループホームふるさと,グループホームフルサト,認知症対応型通所介護,北海道上川郡下川町錦町３０５番地,,44.305475800000000,142.637018300000000,01655-5-1010,01655-5-1002,7450005002799,特定非営利活動法人ふるさと,0193200078,"平日,土曜日,日曜日,祝日",,,,,,,
014699,0113210660,北海道,美深町,美深町老人デイサービスセンターやすらぎ,ビフカチョウロウジンデイサービスセンターヤスラギ,認知症対応型通所介護,北海道中川郡美深町字東1条南3丁目3番地,,44.480006800000000,142.348497200000000,01656-9-2202,,2430005003069,北海道厚生農業協同組合連合会,0113210660,平日,なし,2,http://www.dou-kouseiren.com/index.html,,,,
014699,0173200585,北海道,美深町,グループホーム　びふか,グループホーム　ビフカ,認知症対応型通所介護,中川郡美深町字南町２５番地,,44.476393600000000,142.355960900000000,01656-2-1431,01656-2-3547,9450002010225,有限会社美深シルバー支援,0173200585,"平日,土曜日,日曜日,祝日",但し１２月３０日～１月３日は休業,,,,,,
015431,0195200027,北海道,美幌町,社会福祉法人恵和福祉会　すろー・らいふ美幌通所介護,シャカイフクシホウジンケイワフクシカイスロー・ライフビホロツウショカイゴ,認知症対応型通所介護,北海道網走郡美幌町字野崎11番地1すろー・らいふ美幌　通所介護サービス,すろー・らいふ美幌　通所介護サービス,43.817239800000000,144.094269500000020,0152-73-5212,0152-73-5214,1460305001274,社会福祉法人恵和福祉会,0195200027,"平日,祝日",,0,http://www.keiwafukushi.jp/,,,,
015458,0195300124,北海道,斜里町,ともにデイサービス青葉,トモニデイサービスアオバ,認知症対応型通所介護,北海道斜里郡斜里町青葉町28番地グループホームともに,グループホームともに,43.905088181708760,144.659388256483450,0152-23-7001,0152-23-7001,,株式会社ゆう悠,0195300124,平日,土曜日曜祝祭日、お盆、年末年始の臨時休業日があります。（改行）（改行）令和2年4月23日より新型コロナウイルス感染対策として、休所中となっています。,,,,,,
015504,0195000096,北海道,置戸町,共用型デイサービスはなおけと,キョウヨウガタデイサービスハナオケト,認知症対応型通所介護,北海道常呂郡置戸町字置戸22番地の1,,43.679663400000000,143.591962700000000,0157-67-5587,0157-67-5087,,株式会社テイ・アイ,0195000096,"平日,土曜日,日曜日,祝日",,,,,,,
015610,0195100094,北海道,興部町,興部町認知症対応型デイサービスセンター,オコッペチョウニンチショウタイオウガタデイサービスセンター,認知症対応型通所介護,北海道紋別郡興部町字興部230番地の11興部町老人福祉センター,興部町老人福祉センター,44.471988600000000,143.116185699999960,0158-82-2947,0158-82-2947,4000020015610,興部町,0195100094,"平日,土曜日,祝日",年末年始休み　12/31～1/5,0,,,,,
015784,0173600354,北海道,白老町,グループホームどんぐりの里,グループホームドングリノサト,認知症対応型通所介護,北海道白老郡白老町字萩野310－112,,42.525836100000010,141.310012700000010,0144-83-4240,0144-83-6640,3430005009057,特定非営利活動法人　介護ホームどんぐりの家,0173600354,"土曜日,日曜日",,3,,,,,
015784,0193600525,北海道,白老町,グループホームかしわ,グループホームカシワ,認知症対応型通所介護,北海道白老郡白老町字萩野310-111どんぐりの森,どんぐりの森,42.526015735343880,141.310451127016220,0144－83－4240,0144－83－6640,7430005013591,社会福祉法人優和会,0193600525,日曜日,日曜日のみの営業,,https://www.yuwakai2019.com/pc/,,,,
015784,0193600103,北海道,白老町,デイサービス　くぬぎ,デイサービス　クヌギ,認知症対応型通所介護,北海道白老郡白老町字萩野３１０－１１１,,42.526008300000010,141.310379400000000,0144-83-9111,0144-83-6737,7430005013591,社会福祉法人　優和会,0193600103,"平日,土曜日,祝日",,12,,,,,
015784,0193600533,北海道,白老町,グループホームどんぐりの里,グループホームドングリノサト,認知症対応型通所介護,北海道白老郡白老町字萩野310-112,,42.525848800000000,141.310035699999960,0144-83-4240,0144-83-6640,7430005013591,社会福祉法人優和会,0193600533,"土曜日,日曜日",延長最大2時間あり,3,https://www.yuwakai2019.com/,,,,
015784,0193600541,北海道,白老町,デイサービスくぬぎ,デイサービスクヌギ,認知症対応型通所介護,北海道白老町字萩野３１０－１１２どんぐりの森,どんぐりの森,42.525848800000006,141.310035699999960,0144-83-9111,0144-83-6737,7430005013591,社会福祉法人優和会,0193600541,"平日,土曜日,祝日",コロナウイルス・インフルエンザ・ノロウイルス等の感染症及び自然災害時に臨時休業あり。,,https://www.yuwakai2019.com/,,,,
016012,0193800257,北海道,日高町,特定非営利活動法人富川ヒカルホーム　デイサービスさくら,トクテイヒエイリカツドウホウジントミカワヒカルホーム　デイサービスサクラ,認知症対応型通所介護,北海道沙流郡日高町富川西2丁目9番13号,,42.525922800000000,142.018654100000000,01456-2-2836,01456-2-2836,3430005013884,特定非営利活動法人富川ヒカルホーム,0193800257,"平日,土曜日,祝日",,0,,,,,
016021,0193800265,北海道,平取町,認知症対応グループホーム　こころのホームふれない,ニンチショウタイオウガタグループホーム　ココロノホームフレナイ,認知症対応型通所介護,北海道平取町振内町31番地17,,42.725183900000000,142.304710900000000,01457-3-3180,01457-3-3181,2430005009363,社会福祉法人平取福祉会,0193800265,平日,,,,,,,
016101,0173800491,北海道,新ひだか町,認知症高齢者グループホーム「ほほ笑みハウス」,ニンチショウコウレイシャグループホーム「ホホエミハウス」,認知症対応型通所介護,北海道日高郡新ひだか町静内中野町２丁目12番６号,,42.352994000000000,142.369959300000000,0146-43-0706,0146-43-0706,,有限会社静内ケアセンター,0173800491,"平日,土曜日,日曜日,祝日",,0,,,,,
016101,0173800350,北海道,新ひだか町,認知症高齢者グループホーム「栗ちゃんの家」,ニンチショウコウレイシャグループホーム「クリチャンノイエ」,認知症対応型通所介護,北海道日高郡新ひだか町静内ときわ町３丁目12番25号,,42.346522299999990,142.366251499999970,0146-45-0023,0146-45-0023,,有限会社静内ケアセンター,0173800350,"平日,土曜日,日曜日,祝日",,0,,,,,
016101,0193800018,北海道,新ひだか町,認知症対応型通所介護事業所「あすなろ」,ニンチショウタイオウガタツウショカイゴジギョウショ「アスナロ」,認知症対応型通所介護,北海道日高郡新ひだか町静内ときわ町3丁目12番23号,,42.346780599999990,142.366515400000020,0146-42-3255,0146-42-3255,6430002061553,有限会社静内ケアセンター,0193800018,"平日,土曜日,祝日",,0,,,,,
016101,0193800059,北海道,新ひだか町,認知症対応型通所介護「なかの」,ニンチショウタイオウガタツウショカイゴ「ナカノ」,認知症対応型通所介護,北海道日高郡新ひだか町静内中野町２丁目12-36,,42.353221800000010,142.370164800000000,0146-42-7821,0146-42-1557,6430002061553,有限会社静内ケアセンター,0193800059,"平日,土曜日,祝日",,0,,,,,
016314,0194700084,北海道,音更町,ロータス音更認知症対応型通所介護事業所,ロータスオトフケニンチショウタイオウガタツウショカイゴジギョウショ,認知症対応型通所介護,河東郡音更町中鈴蘭元町２番地９,,42.955511500000000,143.190677100000020,0155-30-7611,0155-30-6800,7430005000581,社会福祉法人手稲ロータス会,0194700084,"平日,土曜日,祝日",,12,http://teinelotuskai.com/,,,,
016349,0194700795,北海道,鹿追町,れんがの家　デイサービス,レンガノイエ　デイサービス,認知症対応型通所介護,北海道河東郡鹿追町鹿追北3線8番地25れんがの家,れんがの家,43.099969400000010,142.995848200000000,0156-67-7707,0156-67-7707,3460105001357,特定非営利活動法人かしわのもり,0194700795,"平日,土曜日,祝日",,,,,,,
016365,0194700530,北海道,清水町,さくらさくら認知症対応型通所介護事業所,サクラサクラニンチショウタイオウガタツウショカイゴジギョウショ,認知症対応型通所介護,北海道上川郡清水町北１条西５丁目１－２,,43.010808500000000,142.873304999999960,0156-62-5772,0156-62-5772,9460105001797,絆の郷しもさほろ,0194700530,"平日,祝日",,12,,,,,
016365,0194700787,北海道,清水町,さくらさくらデイサービス,サクラサクラデイサービス,認知症対応型通所介護,北海道上川郡清水町宇下佐幌基線98番地,,43.042810300000000,142.898216500000000,0156-69-3001,0156-69-3002,9460105001797,特定非営利活動法人絆の郷しもさほろ,0194700787,"平日,土曜日,日曜日,祝日",,,,,,,
016438,0194700142,北海道,幕別町,通いの家あづまし家,カヨイノイエアヅマシヤ,認知症対応型通所介護,中川郡幕別町札内暁町２５９番地８４,,42.919221800000000,143.265902200000030,0155-55-5551,0155-55-5552,,特定非営利活動法人　幕別ケアサポート,0194700142,"平日,祝日",,,,,,,
016438,0194700712,北海道,幕別町,認知症対応型通所介護Ｓｔｏｒｙ,ニンチショウタイオウガタツウショカイゴストーリィ,認知症対応型通所介護,北海道中川郡幕別町札内共栄町175番地の8,,42.916891500000000,143.245699900000000,0155-67-7958,0155-67-8524,6460101006877,株式会社ＲｅｇｉｏｎａｌＮｕｒｔｕｒｅ,0194700712,"平日,祝日",,0,,,,,
016438,0194700159,北海道,幕別町,宅老所　和,タクロウショ　ワッカ,認知症対応型通所介護,中川郡幕別町緑町１番地の１３,,42.904050826063695,143.370982995909140,0155-54-5388,0155-54-5389,3460105001869,特定非営利活動法人幕別町地域支縁ネット,0194700159,"平日,土曜日,祝日",,0,,,,,
016471,0194700019,北海道,足寄町,デイホームひなたぼっこ,デイホームヒナタボッコ,認知症対応型通所介護,北海道足寄郡足寄町旭町１丁目３８番地,,43.241645700000000,143.558296700000030,0156-25-6000,0156-25-6767,7460105001436,特定非営利活動法人ママサポートえぷろん,0194700019,平日,,,https://mamasapo1020.jp/mamasapo/,,,,
016497,0174700310,北海道,浦幌町,通所介護センターうらほろ,ツウショカイゴセンターウラホロ,認知症対応型通所介護,北海道十勝郡浦幌町字北町８番地１浦幌町保健福祉センター内,浦幌町保健福祉センター内,42.815365600000000,143.662205900000000,015-576-5566,015-576-2255,9460105001459,社会福祉法人　浦幌町社会福祉協議会,0174700310,平日,,,https://urahoro-shakyou.jimdofree.com/,,,,
016616,0194300091,北海道,釧路町,グループホームあいりす・かとれあ,グループホームアイリス・カトレア,認知症対応型通所介護,北海道釧路郡釧路町桂２丁目１番２号,,43.004862200000000,144.400257000000000,0154－64－5025,0154－64－5027,5460005001026,医療法人社団田中医院,0194300091,"平日,祝日",特になし,,,,,,
016616,0194300026,北海道,釧路町,株式会社グッドウィル　グループホーム　はなしのぶ,カブシキガイシャ　グッドウィル　グループホーム　ハナシノブ,認知症対応型通所介護,北海道釧路郡釧路町別保９丁目２８番地,,42.988804700000000,144.478468500000000,0154-62-2520,0154-62-2521,9460002005190,株式会社グッドウィル,0194300026,"平日,土曜日,日曜日,祝日",,0,,,,,
016624,0174300350,北海道,厚岸町,医療法人社団　田中医院　グループホームすずらん・らいらっく,イリョウホウジンシャダンタナカイイン　グループホームスズラン・ライラック,認知症対応型通所介護,厚岸郡厚岸町門静１丁目69番地,,43.062598200000000,144.799241700000040,0153-53-2900,0153-53-3400,,医療法人社団　田中医院　グループホームすずらん・らいらっく,0174300350,平日,※週2回(火曜日、金曜日）の営業、その他の曜日は営業していません。,0,,,,,
016624,0174300517,北海道,厚岸町,医療法人社団田中医院　グループホームらべんだあ・なでしこ,イリョウホウジンシャダンタナカイイン　グループホームラベンダア・ナデシコ,認知症対応型通所介護,北海道厚岸郡厚岸町門静1丁目７６番地,,43.062743749653120,144.799652230163560,0153-53-2000,0153-53-2000,5460005001026,医療法人社団田中医院,0174300517,"平日,土曜日,祝日",,3,,,,,
016683,0194300083,北海道,白糠町,白糠町社会福祉協議会　通所介護事業所　ケアホーム春風,シラヌカチョウシャカイフクシキョウギカイツウショカイゴジギョウショケアホームハルカゼ,認知症対応型通所介護,北海道白糠郡白糠町庶路宮下５丁目３番地２３,,42.988787200000000,144.149538800000000,01547-5-9600,01547-5-9601,9460005000370,社会福祉法人白糠町社会福祉協議会,0194300083,"平日,土曜日,祝日",年末年始休みあり,0,https//www.shakyo.or.jp/index.php?s=176,,,,
016926,0194200150,北海道,中標津町,デイサービス萩の里,デイサービスハギノサト,認知症対応型通所介護,北海道標津郡中標津町川西7-20,,43.548326600000000,144.937618300000000,0153-74-0879,0153-74-0879,,合同会社萩,0194200150,平日,正月　お盆期間休みあり,,,,,,
016926,0194200028,北海道,中標津町,愛の家デイサービスなかしべつ,アイノイエデイサービスナカシベツ,認知症対応型通所介護,北海道標津郡中標津町東21条南7丁目6番地,,43.554690300000000,144.995403400000000,0153-72-2861,0153-72-2862,5430001028174,メディカル・ケア・サービス北海道株式会社,0194200028,平日,,0,https://mcs-ainoie.com/ins35.html,,,,
022012,0290100130,青森県,青森市,共用型認知症対応型デイサービスえにしの家,キョウヨウガタニンチショウタイオウガタデイサービス　エニシノイエ,認知症対応型通所介護,青森市浪岡大字浪岡字佐野１４－１,,40.721275899999990,140.600703399999930,0172-62-4724,0172-62-4793,3420002005530,なみおかケアサービス,0290100130,"平日,土曜日,日曜日,祝日",12/29～1/3休業日,3,,,,,
022012,0270101538,青森県,青森市,元気町デイサービスセンター,ゲンキマチデイサービスセンター,認知症対応型通所介護,青森市大字羽白字沢田48番地2,,40.854541300000000,140.689926099999980,017-763-3091,017-763-3092,2420005000430,社会福祉法人緑鴎会,0270101538,"平日,土曜日,祝日",,20,http://ryokuoukai.net,,,,
022012,0290100155,青森県,青森市,さいとうデイサービス,サイトウデイサービス,認知症対応型通所介護,青森県青森市青柳２丁目６番２３号,,40.827449600000000,140.757325000000040,017-774-0119,017-774-0119,1420001005046,株式会社ベストケア,0290100155,"平日,土曜日,祝日",,24,,,,,
022021,0270200397,青森県,弘前市,デイサービスセンター鷹匠町,デイサービスセンタータカジョウマチ,認知症対応型通所介護,青森県弘前市鷹匠町16-1,,40.605779400000000,140.458075300000020,0172-39-2200,0172-39-2201,4420005004405,社会福祉法人オリーブ会,0270200397,"平日,土曜日,祝日",,0,,,,,
022021,0270200900,青森県,弘前市,デイサービスセンターはるなの家,デイサービスセンターハルナノイエ,認知症対応型通所介護,青森県弘前市大字福村字新舘添５０番地２,,40.606911600000000,140.517336700000000,0172-28-7661,0172-28-1617,1420005004366,社会福祉法人　一葉会,0270200900,"平日,土曜日,祝日",休業日は12月31日～1月3日,9,http://www.ichiyoukai.jp/,,,,
022021,0270201957,青森県,弘前市,デイサービスセンター朝日温泉,デイサービスセンターアサヒオンセン,認知症対応型通所介護,弘前市福田巻屋4-1,,40.594190600000000,140.511554700000030,0172-29-4141,,8420001008892,株式会社ウエルビーング,0270201957,"平日,土曜日,祝日",祝日は休まず営業しています。（改行）お正月につきましてはカレンダーにより、一部平日の休みや、日曜日の営業もありますので（改行）ご了承下さい。,12,,,,,
022021,0272200080,青森県,弘前市,通所介護事業　パインハウス岩木,ツウショカイゴジギョウ　パインハウスイワキ,認知症対応型通所介護,青森県弘前市大字賀田二丁目4番地2,,40.615249332597170,140.419132790190130,0172-82-3330,0172-82-3228,4420005004371,社会福祉法人嶽暘会,0272200080,"平日,土曜日,日曜日,祝日",,12,https://gakuyokai.jp/,,,,
022039,0290300011,青森県,八戸市,八戸医療生活協同組合　デイサービスセンターさるかどした,ハチノヘイリョウセイカツキョウドウクミアイ　デイサービスセンターサルカドシタ,認知症対応型通所介護,青森県八戸市南類家1丁目13－7,,40.503940700000000,141.503877600000000,0178-44-8488,0178-71-2878,1420005003038,八戸医療生活協同組合,0290300011,"平日,土曜日,祝日",特になし,12,http://www.hachinohe-iryou.jp/,,,,
022039,0290300375,青森県,八戸市,共用型デイサービスすみれ,キョウヨウガタデイサービススミレ,認知症対応型通所介護,青森県八戸市江陽5丁目７－２４グループホーム舟見町,グループホーム舟見町,40.522130000000000,141.508620999999950,0178-73-5725,0176-73-5726,5420005006012,医療法人すみれ会,0290300375,"平日,土曜日,日曜日,祝日",希望に応じて延長可能。,0,,,,,
022039,0270300478,青森県,八戸市,福寿草デイサービスセンター,フクジュソウデイサービスセンター,認知症対応型通所介護,青森県八戸市大字妙字西平６番19,,40.488781900000000,141.544690600000000,0178-25-8181,0178-25-1022,3420005002921,社会福祉法人　スプリング,0270300478,"平日,土曜日,日曜日,祝日",営業日は月曜日から日曜日までとする。ただし12月31日～1月3日までは除く。,12,http://www.fukujuso.or.jp/,,,,
022039,0290300029,青森県,八戸市,介護老人保健施設　南山苑,カイゴロウジンホケンシセツ　ナンザンエン,認知症対応型通所介護,青森県八戸市大字田面木字赤坂24-1,,40.500068519479830,141.454729034294840,0178-27-3009,0178-46-5222,9420005002726,医療法人青仁会,0290300029,"平日,土曜日,日曜日,祝日",,12,http://www.seijin.or.jp,,,,
022039,0290300052,青森県,八戸市,地域密着型通所介護きずな,チイキミッチャクガタツウショカイゴキズナ,認知症対応型通所介護,八戸市大字売市字観音下３番２,,40.514777900000000,141.486171099999980,0178-71-2270,0178-71-2273,2420005002963,社会福祉法人みやぎ会,0290300052,"平日,土曜日,日曜日,祝日",１２月３１日及び１月１日は休業,0,http://www.sg-miyagikai.jp/,,,,
022039,0290300201,青森県,八戸市,石堂さくら通りしおん,イシドウサクラドオリシオン,認知症対応型通所介護,青森県八戸市石堂２丁目２９－７,,40.529239600000000,141.473027799999950,0178-51-2282,0178-51-1033,8420005002917,社会福祉法人寿栄会,0290300201,"平日,土曜日,祝日",,0,https://jurakuso.sakura.ne.jp/,,,,
022039,0290300235,青森県,八戸市,結び家,ムスビヤ,認知症対応型通所介護,青森県八戸市尻内町島田13-1結び家,結び家,40.510246253534790,141.442462601049780,0178-51-6131,0178-51-6132,9420005006727,公益財団法人こころすこやか財団,0290300235,"平日,祝日",,12,https://www.kokorosukoyaka.com,,,,
022039,0290300391,青森県,八戸市,グループホーム南部山さきおりの家,グループホームナンブヤマサキオリノイエ,認知症対応型通所介護,青森県八戸市河原木字平5-2,,40.534397900000000,141.439113500000000,0178-21-2393,0178-20-4979,6420002010701,有限会社サンライズ,0290300391,"平日,土曜日,祝日",延長の場合、相談下さい。,0,https://sunrise-team.com,,,,
022039,0290300615,青森県,八戸市,共用デイ　グループホームかっこうの森ぬまだて,キョウヨウデイ　グループホームカッコウノモリヌマダテ,認知症対応型通所介護,青森県八戸市沼館１丁目１０－１３,,40.525072800000010,141.494209300000000,０１７８－７３－２５１５,０１７８－３８ー８３３２,4420002010447,株式会社リブライズ,0290300615,"平日,土曜日,祝日",,3,,,,,
022047,0290400118,青森県,黒石市,デイサービスAKYまえだ希望,デイサービスエーケーワイマエダキボウ,認知症対応型通所介護,青森県黒石市追子野木３丁目２１５番地１,,40.635079000000000,140.587634000000000,0172-55-6786,0172-53-8444,1420003001472,ＡＫＹ合同会社,0290400118,"平日,土曜日",,,,,,,
022055,0270500127,青森県,五所川原市,青山荘デイサービスセンター,セイザンソウデイサービスセンター,認知症対応型通所介護,青森県五所川原市大字金山字盛山４２－８,,40.809050600000000,140.499224400000000,0173-35-5225,0173-38-1216,7420005003528,社会福祉法人　青森民友厚生振興団,0270500127,"平日,土曜日,日曜日,祝日",延長利用に関しては、要相談。,0,http://www.seizanso.or.jp/,,,,
022055,0270500341,青森県,五所川原市,高齢者グループホーム憩いの家,コウレイシャグループホームイコイノイエ,認知症対応型通所介護,五所川原市字一ツ谷５５４番地１０,,40.809580100000000,140.455588600000050,0173-33-4301,0173-33-4300,4420001008319,株式会社五所川原ケアセンター,0270500341,"平日,土曜日,日曜日,祝日",,6,http:/norita-group.com/,,,,
022063,0270600216,青森県,十和田市,デイサービスセンターみちのくの里,デイサービスセンターミチノクノサト,認知症対応型通所介護,青森県十和田市大字三本木字里ノ沢１番５６９号,,40.625400200000000,141.248247399999970,0176-20-2822,0176-20-2823,5420005005716,社会福祉法人恵仁会,0270600216,"平日,土曜日,祝日",,0,,,,,
022071,0290700111,青森県,三沢市,指定地域密着型サービス認知症対応型通所介護施設　ポプラの家,シテイチイキミッチャクガタサービスニンチショウタイオウガタツウショカイゴシセツポプラノイエ,認知症対応型通所介護,青森県三沢市大字三沢字南山１１－２３,,40.683145600000000,141.396731899999960,０１７６－５８－５２２５,０１７６－５８－５２２６,3420003001074,合同会社ふじ,0290700111,"平日,土曜日,日曜日,祝日",天候不良、災害（停電、断水）等の事情により、等事業所の判断により営業を調整する場合が有ります。,0,,,,,
022080,0290800051,青森県,むつ市,みちのく金谷デイサービスセンターまるめろ,ミチノクカナヤデイサービスセンターマルメロ,認知症対応型通所介護,青森県むつ市金谷二丁目20番1号,,41.295856800000000,141.194152400000000,0175-23-0772,0175-23-0762,5420005006540,社会福祉法人青森社会福祉振興団,0290800051,"平日,土曜日,日曜日,祝日",,12,http://www.michinokuso/or.jp,,,,
022098,0272100769,青森県,つがる市,グループホーム我が家,グループホーム　ワガヤ,認知症対応型通所介護,青森県つがる市木造中館田浦44-1,,40.813604600000000,140.363980099999930,0173-49-2312,0173-49-2317,1420001008412,大東株式会社,0272100769,"平日,土曜日,祝日",12/31～1/3　休業,6,,,,,
023078,0292000049,青森県,外ヶ浜町,グループホーム　よつば,グループホーム　ヨツバ,認知症対応型通所介護,平舘根岸小川258-2,,41.148189500000000,140.631669000000000,0174-31-2755,0174-25-3320,3420001004896,株式会社　よつばケア,0292000049,"平日,土曜日,日曜日,祝日",,0,,,,,
023078,0292000064,青森県,外ヶ浜町,デイサービスセンター　はまゆう,デイサービスセンター　ハマユウ,認知症対応型通所介護,青森県東津軽郡外ヶ浜町字蟹田川原添２番地３,,41.044495400000000,140.636870199999970,0174-31-1871,0174-22-3993,6420005000939,社会福祉法人わとなーる,0292000064,"平日,祝日",,0,http://watona-ru.com,,,,
023612,0272300971,青森県,藤崎町,テレサ苑,テレサエン,認知症対応型通所介護,青森県南津軽郡藤崎町大字林崎字宮本67番地1,,40.670633700000000,140.488739000000000,0172-75-3162,0172-75-3162,1420002015028,有限会社博愛会ケアサービスセンター,0272300971,"平日,土曜日,日曜日,祝日",,,,,,,
023876,0272400516,青森県,中泊町,認知症対応型通所介護　グループホームやすらぎの里,ニンチショウタイオウガタツウショカイゴ　グループホームヤスラギノサト,認知症対応型通所介護,青森県北津軽郡中泊町大字尾別字小谷２６番地１,,40.985550600000000,140.431529600000000,0173-26-7725,0173-26-5331,6420005003900,社会福祉法人向明会,0272400516,"平日,祝日",令和５年５月３１日で単独型のデイサービスは休止となっております。（改行）令和５年６月１日より共用型の「認知症対応型通所介護グループホームやすらぎの里」として営業の継続を行っています。（改行）今現在の定休日は水曜日・土曜日・日曜日となっています。,,https://koumeikai.net/,,,,
024058,0292500154,青森県,六戸町,地域密着型通所介護にこにこ七百,チイキミッチャクガタツウショカイゴニコニコシチヒャク,認知症対応型通所介護,青森県上北郡六戸町大字犬落瀬字権現沢54番地455,,40.646949700000010,141.302885899999980,0176-58-6686,0176-58-6681,4420005005717,社会福祉法人もみじ会,0292500154,"平日,土曜日,祝日",,12,https:/www.sg-momijikai.com/,,,,
024082,0272500869,青森県,東北町,デイサービスセンター　リバティ中央,デイサービスセンター　リバティ　チュウオウ,認知症対応型通所介護,青森県上北郡東北町上北北２丁目３３－３１５,,40.733711900000000,141.254496400000000,0176-58-1112,0176-58-1114,9420005005778,社会福祉法人和森会,0272500869,"平日,土曜日,祝日",,0,http://washinkai.or.jp,,,,
024236,0292600046,青森県,大間町,グループホームおおま荘,グループホームオオマソウ,認知症対応型通所介護,青森県下北郡大間町大字大間字大間平38-519,,41.537820200000000,140.916337400000000,0175-31-1068,0175-31-1069,6420001006923,倉石ハーネス株式会社,0292600046,"平日,土曜日,日曜日,祝日",運営状況に応じて定休日の変動あり,3,,,,,
024236,0272600404,青森県,大間町,グループホーム　内山苑,グループホーム　ウチヤマエン,認知症対応型通所介護,青森県下北郡大間町大字大間字大川目37-1,,41.524279200000000,140.916737600000030,0175-37-5122,0175-32-1812,6420001012772,株式会社渋田産業,0272600404,"平日,土曜日,日曜日,祝日",,6,www.utiyamaen.com/,,,,
024431,0292700242,青森県,田子町,デイサービスセンターけやき,デイサービスセンターケヤキ,認知症対応型通所介護,大字田子字風張20-21,,40.340752900000000,141.147424300000000,0179-20-7131,0179-20-7132,4420005007630,一般社団法人南部州ザ・チャレンジド協会,0292700242,"平日,土曜日,日曜日,祝日",19時までの利用時間となっていますが、8時～18時以降利用希望の方は、家族が送迎して頂ければ利用する事が可能となります。その都度相談して頂ければ対応いたします。,,,,,,
024457,0292700119,青森県,南部町,認知症対応型デイサービスセンターあいのて,ニンチショウタイオウガタデイサービスセンターアイノテ,認知症対応型通所介護,青森県三戸郡南部町大字剣吉字中河原１番地２６,,40.441562624033935,141.339667449772300,0178-60-5070,0178-75-1201,9420001013074,株式会社クレードル,0292700119,"平日,土曜日,祝日",,12,,,,,
024465,0272700311,青森県,階上町,見心園居宅サービスセンター（デイサービス）,ケンシンエンキョタクサービスセンター,認知症対応型通所介護,青森県三戸郡階上町大字赤保内字道仏道添21-12,,40.446362099999990,141.623057000000020,0178-88-3355,0178-88-3442,8420005002933,社会福祉法人徳望会,0272700311,"平日,日曜日,祝日",なし,,https://www.kenshinen.jp/,,,,
032018,0370102287,岩手県,盛岡市,デイサービスくるみの家,デイサービスクルミノイエ,認知症対応型通所介護,岩手県盛岡市上堂1丁目3番40号,,39.724586100000000,141.126813399999950,019-643-1800,019-643-1801,4400001003420,株式会社くるみの家,0370102287,"平日,土曜日,日曜日,祝日",,0,https://www.kuruminoie.com,,,,
032018,0370102261,岩手県,盛岡市,第二のわが家「黒石野」デイサービスセンター,ダイニノワガヤ「クロイシノ」デイサービスセンター,認知症対応型通所介護,岩手県盛岡市黒石野一丁目3番38号,,39.741048299701400,141.151842220237800,019-665-2660,019-665-2662,9400005002208,特定非営利活動法人第二のわが家,0370102261,"平日,土曜日,日曜日,祝日",,12,http://www.wagaya2.jp/,,,,
032018,0370102170,岩手県,盛岡市,サンパーク笑う門デイサービスセンター,サンパークワラウカドデイサービスセンター,認知症対応型通所介護,岩手県盛岡市門一丁目15－10,,39.670406245306210,141.171166330688460,019-604-7780,019-604-7781,4400001002199,株式会社サンメディカル,0370102170,"平日,土曜日,日曜日,祝日",,12,https://www.sunme.co.jp/,,,,
032026,0390200350,岩手県,宮古市,グループホームおもつべ,グループホームオモツベ,認知症対応型通所介護,岩手県宮古市田老字重津部34番77,,39.764181621570195,141.964883710975640,0193-87-9132,0193-87-9132,5420005002721,医療法人仁泉会,0390200350,"平日,祝日",グループホームおもつべの共用型事業所となっているため、平日以外でも電話の取次ぎ等は可能です。（改行）（電話番号・ＦＡＸ番号共通：0193-87-9132）（改行）祝日が土曜、日曜の場合は休業。,0,http://www.hohoeminosato.jp/,,,,
032026,0390200269,岩手県,宮古市,グループホームたろう,グループホームタロウ,認知症対応型通所介護,岩手県宮古市崎鍬ヶ崎９－３９－１グループホームたろう,グループホームたろう,39.668527999999990,141.956922800000030,0193-71-2817,0193-71-2817,5420005002721,医療法人仁泉会,0390200269,"平日,祝日",,3,https://www.hohoeminosato.jp/group/,,,,
032026,0390200327,岩手県,宮古市,JAライフサポートグループホーム花＊花,ジェイエイライフサポートグループホームハナハナ,認知症対応型通所介護,岩手県宮古市蟇目第3地割15番地1,,39.627443799999990,141.836636000000000,0193-65-6131,0193-65-6132,2400001009642,株式会社ＪＡライフサービス,0390200327,"平日,土曜日,日曜日,祝日",,0,,,,,
032051,0390500296,岩手県,花巻市,JAいわて花巻グループホームとどろき,ジェイエイイワテハナマキグルウプホウムトドロキ,認知症対応型通所介護,岩手県花巻市北笹間13-71,,39.346760992004526,141.046682053967260,0198-41-9701,0198-29-2785,3400005002989,花巻農業協同組合,0390500296,平日,,3,https://www.jahanamaki.or.jp/fukushi/index.html,,,,
032051,0370500431,岩手県,花巻市,認知症対応型通所介護銀河の里,ニンチショウタイオウガタツウショカイゴギンガノサト,認知症対応型通所介護,岩手県花巻市幸田４－１１６－１,,39.397365400000000,141.196702299999970,0198-32-1788,0198-32-1757,2400005003294,社会福祉法人悠和会,0370500431,"平日,土曜日,祝日",2025年1月1日から土曜日営業を休止中。,0,http://www.ginganosato.com,,,,
032069,0390600419,岩手県,北上市,やちだもの家北上共用型デイサービス,ヤチダモノイエキョウヨウガタデイサービス,認知症対応型通所介護,岩手県北上市立花17地割1-2ケアタウンやちだもの家Ａ棟,ケアタウンやちだもの家Ａ棟,39.279906100000000,141.140345200000000,0197-61-5583,0197-61-0077,4400001000896,第一商事株式会社,0390600419,"平日,土曜日,祝日",,,https://yachidamonoie.dai-ichi.com/,,,,
032069,0390600427,岩手県,北上市,安寿の里,アンジュノサト,認知症対応型通所介護,岩手県北上市中野町2丁目12番24号,,39.293992700000000,141.122951000000000,0197-72-6900,0197-72-6910,5400001009375,株式会社真心デイサービス安寿,0390600427,"平日,土曜日,日曜日,祝日",,9,https://anju-nakano.com/,,,,
032077,0390700136,岩手県,久慈市,認知症対応型デイサービスセンターきんぎょ,ニンチショウタイオウガタデイサービスセンターキンギョ,認知症対応型通所介護,岩手県久慈市小久慈町第18地割4番地11,,40.168530506229230,141.737006865745540,0194-66-8206,0194-66-8207,8400005005830,社会福祉法人琥珀会,0390700136,"平日,祝日",,6,https://kohakukai.org/,,,,
032077,0390700094,岩手県,久慈市,デイサービス暖家,デイサービスダンケ,認知症対応型通所介護,岩手県久慈市田屋町1-30-40,,40.195284800000000,141.774460200000020,0194-66-7799,0194-52-1466,3400002013015,有限会社ホームセンター仙台,0390700094,"平日,祝日",,0,,,,,
032085,0390800118,岩手県,遠野市,デイサービスセンターあったかいごひといち,デイサービスセンターアッタカイゴヒトイチ,認知症対応型通所介護,岩手県遠野市中央通り5-25,,39.329456100000000,141.531101700000000,0198-63-1516,0198-63-1517,7400001012906,株式会社三協メディケア,0390800118,"平日,土曜日,祝日",,,http://sankyo-ika.jp/,,,,
032093,0372700641,岩手県,一関市,グループホームにこにこだいとう,グループホームニコニコダイトウ,認知症対応型通所介護,岩手県一関市大東町猿沢字板倉60番地１,,39.033609299999990,141.294764200000000,0191-71-4167,0191-71-4167,1400501000845,株式会社いわい,0372700641,"平日,祝日",祝日は月曜～金曜であれば営業。年末年始は未定のためご確認ください。,0,,,,,
032093,0390900066,岩手県,一関市,ディサービスさくらコンフォート,ディサービスサクラコンフォート,認知症対応型通所介護,岩手県一関市三関字日照77-2,,38.928992099999990,141.149337200000000,0191-31-8310,0191-31-8310,5400505000334,医療法人あけぼの会,0390900066,"平日,祝日",営業日　週3回（月・水・金）,0,,,,,
032107,0371000068,岩手県,陸前高田市,高田デイサービスセンター指定通所介護事業所,タカタデイサービスセンターシテイツウショカイゴジギョウショ,認知症対応型通所介護,岩手県陸前高田市高田町字鳴石52番地31,,39.023989000000000,141.628950100000000,0192-54-2947,0192-54-2947,9402705000201,社会福祉法人高寿会,0371000068,"平日,土曜日,日曜日,祝日",,12,http://rikutaka-koujyukai.com/,,,,
032115,0391100120,岩手県,釜石市,デイサービスやかた,デイサービスヤカタ,認知症対応型通所介護,岩手県釜石市大町三丁目9－16,,39.275457300000000,141.882110900000040,0193-31-3301,0193-31-3302,5400003000852,コンフォートライフ合同会社,0391100120,"平日,土曜日,祝日",,0,http://yakata-home.com/,,,,
032115,0371100777,岩手県,釜石市,デイサービスセンター善,デイサービスセンターゼン,認知症対応型通所介護,岩手県釜石市大字平田第３地割２９番地１０,,39.246575100000000,141.885695300000000,0193-55-6084,0193-55-6085,7400003001460,合同会社ＺＥＮ　ＰＲＯＪＥＣＴ,0371100777,"平日,土曜日,祝日",,0,https://zen-project.jimdo.com/,,,,
032140,0391400074,岩手県,八幡平市,認知症対応型通所介護事業所里・つむぎ,ニンチショウタイオウガタツウショカイゴジギョウショサトツムギ,認知症対応型通所介護,岩手県八幡平市田頭12-99-1,,39.928198927401560,141.063026468261680,0195-76-4424,0195-70-2250,1400005002925,特定非営利活動法人里・つむぎ八幡平,0391400074,"平日,土曜日,日曜日,祝日",年末年始12月31日～1月3日のみ休みます。,0,http://www.s-tumugi.jp,,,,
032158,0372500488,岩手県,奥州市,ぬくもりの家デイサービスセンター,ヌクモリノイエデイサービスセンター,認知症対応型通所介護,岩手県奥州市胆沢南都田字大持30番地,,39.129350500000020,141.069356100000050,0197-46-5100,0197-46-5166,5400605000399,社会福祉法人奥州いさわ会,0372500488,"平日,土曜日,日曜日,祝日",,2,https://www.oshuisawakai.iwate.jp/,,,,
032158,0391500212,岩手県,奥州市,デイサービスセンターじゅあんの園,デイサービスセンタージュアンノソノ,認知症対応型通所介護,岩手県奥州市胆沢南都田石行30番地1いさわ高齢者複合施設じゅあんの園,いさわ高齢者複合施設じゅあんの園,39.119396100000000,141.067639900000020,0197-47-3833,0197-47-3847,5400605000630,社会福祉法人奥州市社会福祉協議会,0391500212,"平日,土曜日,日曜日,祝日",①営業日:火・水・木・土・日　ただし、12月31日から1月3日までを除く。（令和4年4月より月・金休業）（改行）②営業時間　　　　　午前８時３０分から17時15分までとする。（改行）③サービス提供時間　午前９時４０分から15時45分とする。,12,,,,,
032158,0391500162,岩手県,奥州市,ふじの里デイサービスルーム,フジノサトデイサービスルーム,認知症対応型通所介護,岩手県奥州市江刺藤里字平37番地２,,39.187470700000010,141.234172299999950,0197-39-2877,0197-39-2879,8400601000656,株式会社江陽,0391500162,平日,,12,http://www.koyo-esashi.co.jp,,,,
032166,0391600046,岩手県,滝沢市,ケアホームまごのてお茶のみクラブ,ケアホームマゴノテオチャノミクラブ,認知症対応型通所介護,岩手県滝沢市野沢62-1041,,39.797130400000000,141.150153100000000,019-694-1071,019-694-1072,4400002004731,有限会社まごのて,0391600046,"平日,土曜日,日曜日,祝日",,,http://www.magonote.cc,,,,
033014,0392100186,岩手県,雫石町,デイサービスセンターおうしゅく,デイサービスセンターオウシュク,認知症対応型通所介護,岩手県岩手郡雫石町鶯宿第9地割67番地1特別養護老人ホームおうしゅく,特別養護老人ホームおうしゅく,39.641011488479975,140.930896033853510,019-695-2580,019-695-2581,2420005002963,社会福祉法人みやぎ会,0392100186,"平日,土曜日,祝日",年末年始も営業します。,12,http://ousyuku.blog55.fc2.com/,,,,
033031,0392100020,岩手県,岩手町,デイサービス和や家～なごやか～,デイサービスナゴヤカ,認知症対応型通所介護,岩手県岩手郡岩手町大字沼宮内第18地割85番地4,,39.999587400000020,141.237010800000000,0195-69-8877,0195-69-8833,1400001004520,株式会社介護いわて,0392100020,"平日,土曜日,祝日",,0,https://kaigoiwate.com,,,,
033227,0392200044,岩手県,矢巾町,デイサービスつむぎ,デイサービスツムギ,認知症対応型通所介護,岩手県紫波郡矢巾町又兵エ新田第５地割335番地医療福祉多機能ビル　ケアセンター南昌,医療福祉多機能ビル　ケアセンター南昌,39.613757400000000,141.142827400000000,019-698-2015,019-611-2071,9400005002406,医療法人社団帰厚堂,0392200044,"平日,土曜日,祝日",お盆休み・正月休みあり。,6,http://www.ccnansyou.com/,,,,
033669,0392400040,岩手県,西和賀町,医療法人社団真心会グループホーム笹の木,イリョウホウジンシャダンマゴコロカイグループホームササノキ,認知症対応型通所介護,岩手県和賀郡西和賀町湯本30地割74-8,,39.340435500000000,140.773349200000000,0197-84-2284,0197-84-2284,7400005003380,医療法人社団真心会,0392400040,"平日,土曜日,日曜日,祝日",感染症等の感染状況によりデイサービスをお休みすることがあります（改行）勤務状況に応じて職員確保できない時はお休みします（改行）認知症対応型共同生活介護の共用型デイサービスのため定員は3名以下となります,,,,,,
033669,0372400150,岩手県,西和賀町,デイサービスセンターぶなの園,デイサービスセンターブナノソノ,認知症対応型通所介護,岩手県和賀郡西和賀町沢内字太田２地割１３５番地,,39.431738000000000,140.749502099999970,0197-85-2322,0197-85-2317,5400005003440,社会福祉法人やすらぎ会,0372400150,"平日,土曜日,祝日",,0,http://yasuragikai.com/,,,,
033812,0392500021,岩手県,金ヶ崎町,介護予防施設西光荘,カイゴヨボウシセツセイコウソウ,認知症対応型通所介護,岩手県胆沢郡金ケ崎町西根和光５４４番地２,,39.188911100000000,141.003750600000000,0197-43-2340,0197-43-2360,2400601000471,株式会社金ケ崎福祉フロンティア,0392500021,"平日,土曜日,日曜日,祝日",,0,https://kanegasaki.oshushi.com/seikoso.php,,,,
034029,0392600037,岩手県,平泉町,デイサービスセンターいこいの杜,デイサービスセンターイコイノモリ,認知症対応型通所介護,岩手県西磐井郡平泉町平泉字樋の沢25-1,,38.961565000000000,141.122584400000000,0191-48-4812,0191-48-4813,2400505000114,特定非営利活動法人ケアセンターいこい,0392600037,"平日,祝日",12/31・1/1～1/3・8/14～8/16,0,http://www.cc-ikoi.com/,,,,
034843,0393000088,岩手県,田野畑村,デイサービスつくえ,デイサービスツクエ,認知症対応型通所介護,岩手県下閉伊郡田野畑村机２９９番地,,39.963656800000000,141.934858800000030,0194-33-3500,0194-33-3501,9400001008571,中城興産株式会社,0393000088,"平日,土曜日,日曜日,祝日",,6,,,,,
035033,0393100185,岩手県,野田村,デイサービスぬくもり,デイサービスヌクモリ,認知症対応型通所介護,岩手県九戸郡野田村大字玉川第５地割４５－２２,,40.083003200000000,141.828302200000050,0194-78-3296,0194-78-3297,6400005005221,社会福祉法人健慈会,0393100185,"平日,祝日",,0,https://peraichi.com/landing_pages/view/kenjikai001,,,,
035076,0393100151,岩手県,洋野町,デイサービスセンターすみれ,デイサービスセンタースミレ,認知症対応型通所介護,岩手県九戸郡洋野町種市第40地割22番地2,,40.442744300000000,141.677165400000030,0194-69-1855,0194-69-1866,3400001008098,株式会社藤森,0393100151,"平日,土曜日,日曜日,祝日",,,,,,,
035246,0391300019,岩手県,一戸町,グループホームにこトピア一戸,グループホームニコトピアイチノヘ,認知症対応型通所介護,岩手県二戸郡一戸町一戸字向町56番地1,,40.215670100000000,141.299779100000000,0195-43-3682,0195-43-3682,3420001007767,株式会社サンメディックス,0391300019,"平日,土曜日,日曜日,祝日",,0,,,,,
041017,0495100612,宮城県,仙台市青葉区,ゆかりの杜,ユカリノモリ,認知症対応型通所介護,仙台市青葉区小松島四丁目22番18号,,38.287569400000000,140.890263500000000,022-727-7267,022-727-7268,8370001048300,株式会社ナラティブ,0495100612,"平日,土曜日,祝日",平日にあたる祝日は営業しております。,19,http://www.izuminomori.jp,,,,
041017,0495100562,宮城県,仙台市青葉区,ツクイ仙台愛子グループホーム,ツクイセンダイアヤシグループホーム,認知症対応型通所介護,宮城県仙台市青葉区下愛子字町18,,38.270838629922714,140.764972810450800,022-391-1324,022-391-1323,1020001136162,株式会社ツクイ,0495100562,"平日,土曜日,日曜日,祝日",365日営業,0,https://www.tsukui.net,,,,
041017,0495100224,宮城県,仙台市青葉区,柏木すこやかデイサービス,カシワギスコヤカデイサービス,認知症対応型通所介護,宮城県仙台市青葉区柏木一丁目６－２３,,38.276108650270956,140.865355879797000,022－301－2387,022－301－2388,7370005001256,医療法人星陵会,0495100224,"平日,土曜日,祝日",,12,https://kashiwagi-seiryo.com/,,,,
041017,0475102075,宮城県,仙台市青葉区,楽園デイサービスセンター,ラクエンデイサービスセンター,認知症対応型通所介護,宮城県仙台市青葉区葉山町８－１,,38.285582342821980,140.862503136106850,022-273-4930,022-273-8510,7370005001470,仙台市社会事業協会,0475102075,"平日,土曜日,祝日",,22,http://www.fukushi-sendai.or.jp,,,,
041025,0475200341,宮城県,仙台市宮城野区,福田町デイサービスセンターⅡ,フクダマチ　デイサービスセンター　ニ,認知症対応型通所介護,宮城県仙台市宮城野区田子字富里２２３,,38.276119500000010,140.956407700000000,022-388-8711,022-388-8778,5370005001497,社会福祉法人宮城厚生福祉会,0475200341,"平日,土曜日,祝日",・年末12月30日～年始1月3日は休業です。（変更する場合があります。）　　　　　　　　　　（改行）・年末年始以外の祝日は通常通り営業しております。,0,http://www.kou-fuku.or.jp/index.html,,,,
041025,0495200578,宮城県,仙台市宮城野区,あんさデイサービス,アンサデイサービス,認知症対応型通所介護,宮城県仙台市宮城野区岩切字水分98-2,,38.301681900000010,140.939961200000000,022-762-9313,022-762-9613,3370003005535,合同会社ソルブ,0495200578,"平日,祝日",,0,https://ansa-ds.jp/,,,,
041025,0495200248,宮城県,仙台市宮城野区,ここさいむら小田原,ココサイムラオダワラ,認知症対応型通所介護,宮城県仙台市宮城野区小田原3丁目4番地55号ここさいむら小田原,ここさいむら小田原,38.268273464874426,140.894611164418020,022-253-7541,022-253-7544,9370001011975,株式会社ここみケア,0495200248,"平日,土曜日,日曜日,祝日",,0,https://www.cocomi.co.jp/,,,,
041025,0475201133,宮城県,仙台市宮城野区,ここさいむらつむぎ,ココサイムラツムギ,認知症対応型通所介護,宮城県仙台市宮城野区幸町１丁目１９－２８,,38.278023000000000,140.896132999999960,022-727-2560,022-727-2561,9370001011975,株式会社ここみケア,0475201133,"平日,土曜日,日曜日,祝日",お客様のご希望により延長サービス可能。,23,http://www.cocomi.co.jp,,,,
041025,0475200168,宮城県,仙台市宮城野区,アスケア　デイサービスセンター東仙台(認知症対応型),アスケア　デイサービスセンターヒガシセンダイ,認知症対応型通所介護,宮城県仙台市宮城野区新田3-28-20,,38.280293100000000,140.927954399999980,050-3317-7072,022-782-2372,5080001018392,株式会社ＡＳＣａｒｅ,0475200168,"平日,土曜日,祝日",年末年始12/31～1/3まで休み,12,https://www.as-care.co.jp/,,,,
041033,0495300238,宮城県,仙台市若林区,グループホームなつぎ埜デイサービス,グループホームナツギノデイサ-ビス,認知症対応型通所介護,宮城県仙台市若林区今泉字小在家東97-2,,38.202885800000000,140.939300700000000,022-352-3611,022-289-5570,9370001013930,株式会社リブレ,0495300238,"平日,祝日",,6,http:///www.libre-lifesupport.jp/,,,,
041033,0475300208,宮城県,仙台市若林区,遠見塚デイサービスセンター,トオミヅカデイサービスセンター,認知症対応型通所介護,宮城県仙台市若林区遠見塚１－１４－３０,,38.237269600000000,140.909633699999970,022-286-3798,022-286-2859,5370005001464,社会福祉法人　敬長福祉会,0475300208,"平日,土曜日,祝日","１月１,　２日のみ休館",0,http://敬長福祉会.jp/,,,,
041033,0495300105,宮城県,仙台市若林区,セントケア若林デイサービス（地域密着型）,セントケアワカバヤシデイサービス（チイキミッチャクガタ）,認知症対応型通所介護,宮城県仙台市若林区若林7丁目1番2号2階,,38.227828600000000,140.904092900000020,022-781-1031,022-781-1481,3370001014868,セントケア東北株式会社,0495300105,"平日,土曜日,日曜日,祝日",定休日、時間外は、コールセンターに転送になります。,12,http://www.saint-care.com/,,,,
041041,0495400624,宮城県,仙台市太白区,ツクイ袋原グループホーム,ツクイフクロバラグループホーム,認知症対応型通所介護,宮城県仙台市太白区中田町字法地南４－１ツクイ袋原グループホーム,ツクイ袋原グループホーム,38.196834500000010,140.903397100000000,022-306-3181,022-306-3183,1020001136162,株式会社ツクイ,0495400624,"平日,土曜日,日曜日,祝日",,0,http://www.tsukui.net/,,,,
041041,0475401519,宮城県,仙台市太白区,ここさいむらいろは,ココサイムライロハ,認知症対応型通所介護,宮城県仙台市太白区青山1-30-11,,38.241439151642666,140.857776609339900,022-305-1591,022-305-1592,9370001011975,株式会社ここみケア,0475401519,"平日,土曜日,日曜日,祝日",なし,0,http://www.cocomi.co.jp,,,,
041041,0495400319,宮城県,仙台市太白区,はあとふるケアサービス・上野,ハアトフルケアサービス・ジョウノ,認知症対応型通所介護,宮城県仙台市太白区郡山字上野１４－３,,38.215118500000000,140.895649600000070,022-796-1350,022-796-1351,1370001015505,はあとふるケアサービス株式会社,0495400319,"平日,土曜日,祝日",,0,http://www.heartful-care.jp,,,,
041050,0495500746,宮城県,仙台市泉区,デイホームいずみの杜,デイホームイズミノモリ,認知症対応型通所介護,宮城県仙台市泉区松森字西沢37番地,,38.316828500000000,140.914889799999970,022-771-1860,022-341-1212,4370001019412,株式会社トータルケア・悠々,0495500746,"平日,祝日",平日にあたる祝日は営業しております。,0,http://www.izuminomori.jp,,,,
041050,0475500765,宮城県,仙台市泉区,グループホームさちの家（さちの家デイサービス）,グループホームサチノイエ（サチノイエデイサービス）,認知症対応型通所介護,宮城県仙台市泉区本田町20番7号,,38.322572100000000,140.905649200000000,022-218-3024,022-218-1024,9370005001997,社会福祉法人仙台白百合会,0475500765,"平日,祝日",,3,http://care-net.biz/04/shirayuri/sitemap.php,,,,
041050,0495500555,宮城県,仙台市泉区,ケアエムズ八乙女,ケアエムズヤオトメ,認知症対応型通所介護,宮城県仙台市泉区八乙女中央1-1-10,,38.310088100000000,140.880923899999970,022-725-6631,022-725-6632,4370001021401,株式会社　エムズ,0495500555,"平日,土曜日,祝日",,0,http://ms-co-ltd.com/services/359/,,,,
041050,0495500415,宮城県,仙台市泉区,デイサービスセンターつくし,デイサービスセンターツクシ,認知症対応型通所介護,宮城県仙台市泉区将監10丁目6－5,,38.337012400000010,140.871901500000040,022-739-7504,022-739-7524,3370001023621,株式会社ＰＬＵＳ　ＯＮＥ,0495500415,"平日,土曜日,日曜日,祝日",,10,,,,,
041050,0495500522,宮城県,仙台市泉区,ここさいむら泉中央,ココサイムライズミチュウオウ,認知症対応型通所介護,宮城県仙台市泉区野村字菅間前２５番４０,,38.325544200000000,140.868321800000000,022-342-4451,022-344-9081,9370001011975,株式会社　ここみケア,0495500522,"平日,土曜日,日曜日,祝日",,,https://www.cocomi.co.jp/,,,,
041050,0495500175,宮城県,仙台市泉区,セントケア東北（株）　　セントケア北中山,セントケア　トウホク　カブ　　セントケアキタナカヤマ,認知症対応型通所介護,宮城県仙台市泉区北中山2-33-6,,38.316985500000000,140.818015999999940,022-348-2256,022-348-2257,3370001014868,セントケア東北株式会社,0495500175,"平日,土曜日,祝日",,3,http://www.saint-care.com/,,,,
042021,0490200425,宮城県,石巻市,ぱんぷきん介護センターグループホームみなと筒場,パンプキンカイゴセンターグループホームミナトドウバ,認知症対応型通所介護,宮城県石巻市緑町二丁目1番1,,38.417943200000000,141.339511000000000,0225-90-9617,0225-90-9619,5370301002240,ぱんぷきん株式会社,0490200425,"平日,土曜日,日曜日,祝日",,0,https://care-net.biz/04/pumpkin/index.php,,,,
042021,0470201419,宮城県,石巻市,ツクイ石巻大街道グループホーム,ツクイイシノマキオオカイドウグループホーム,認知症対応型通所介護,宮城県石巻市大街道北2-2-27ツクイ石巻大街道グループホーム,ツクイ石巻大街道グループホーム,38.430530300000000,141.283640900000000,0225-92-7757,0225-92-5576,1020001136162,株式会社ツクイ,0470201419,"平日,土曜日,日曜日,祝日",,6,https://www.tsukui.net,,,,
042021,0470201484,宮城県,石巻市,ぱんぷきん介護センターグループホームねむの木,パンプキンカイゴセンターグループホームネムノキ,認知症対応型通所介護,宮城県石巻市大橋三丁目1番21号,,38.444148800000000,141.308632900000020,0225-92-6877,0225-92-6977,5370301002240,ぱんぷきん株式会社,0470201484,"平日,土曜日,祝日",希望により１９時まで延長利用出来ます。,0,http://care-net.biz/04/pumpkin/,,,,
042021,0490200169,宮城県,石巻市,ぱんぷきん介護センターグループホームふかや,パンプキンカイゴセンターグループホームフカヤ,認知症対応型通所介護,宮城県石巻市広渕字馬場屋敷16-1,,38.472945300000000,141.214261299999970,0225-25-5560,0225-25-5561,5370301002240,ぱんぷきん株式会社,0490200169,"平日,土曜日,日曜日,祝日",上記以外は、営業しております,0,http://care-net.biz/04/pumpkin,,,,
042056,0490500170,宮城県,気仙沼市,ぽらん気仙沼デイサービス,ポランケセンヌマデイサービス,認知症対応型通所介護,宮城県気仙沼市上田中１丁目４－１,,38.887667000000010,141.551847400000040,0226-25-8718,0226-25-8718,8370505000517,社会福祉法人千香会,0490500170,平日,,0,,,,,
042056,0490500154,宮城県,気仙沼市,悠々の郷デイサービス,ユウユウノサトデイサービス,認知症対応型通所介護,宮城県気仙沼市西中才289番地5-,-,38.936972362382660,141.577636923278760,0226-28-9770,0226-28-9771,8370001041131,株式会社悠久会,0490500154,"平日,土曜日",8月13日～16日、12月31日～1月3日まで休み,12,https://yuukyuukai.com/daycare.html,,,,
042056,0490500063,宮城県,気仙沼市,みずなし介護センター　デイサービスまつかわ,ミズナシカイゴセンター　デイサービスマツカワ,認知症対応型通所介護,宮城県気仙沼市切通９４,,38.912758100000000,141.543894000000020,0226-23-5118,0226-23-5118,8370505000285,社会福祉法人豊水会,0490500063,"平日,土曜日,祝日",,12,https://www.k-macs.ne.jp/~yutaka-0168/cgi-bin/index.html,,,,
042056,0490500147,宮城県,気仙沼市,あおぞらぽらんデイサービス,アオゾラポランデイサービス,認知症対応型通所介護,宮城県気仙沼市所沢201番地1－2,,38.898782100000000,141.544086300000000,0226-25-7685,0226-25-8318,8370505000293,特定非営利活動法人なごみ,0490500147,"平日,祝日",,0,https://nagomi-poran.jp/,,,,
042056,0470501289,宮城県,気仙沼市,デイサービスぽらん大島,デイサービスポランオオシマ,認知症対応型通所介護,宮城県気仙沼市廻舘55-2,,38.859333100000000,141.619850700000000,0226-26-2272,0226-26-2271,8370505000517,社会福祉法人千香会,0470501289,平日,季節行事等により、土・日・祝日の営業あり。,,https://senkou-kai.jp/,,,,
042064,0490600046,宮城県,白石市,デイサービスセンターしろいし,デイサービスセンターシロイシ,認知症対応型通所介護,宮城県白石市郡山字平成141番地,,38.015490600000000,140.634147699999970,0224-22-5880,0224-22-5885,5420005002721,医療法人仁泉会,0490600046,"平日,土曜日,祝日",,0,http://www.jinsenkai.com/,,,,
042072,0470700196,宮城県,名取市,名取市デイサービスセンター　光松苑,ナトリシデイサービスセンター　コウショウエン,認知症対応型通所介護,宮城県名取市手倉田字山２１２番地,,38.163372800000000,140.869140700000000,022-382-5583,022-384-8921,1370805000058,社会福祉法人宮城福祉会,0470700196,"平日,土曜日,祝日",,10,,,,,
042072,0470700162,宮城県,名取市,老人デイサービスセンター　ほのぼの,ロウジンデイサービスセンター　ホノボノ,認知症対応型通所介護,宮城県名取市愛島小豆島字山ノ前４９－２,,38.153710100000000,140.868169200000000,022-382-9185,022-784-1088,6370805000268,社会福祉法人愛の郷,0470700162,"平日,土曜日,祝日",,5,http://natori-ainosato.net/,,,,
042081,0490800018,宮城県,角田市,グループホーム花水木,グループホーム　ハナミズキ,認知症対応型通所介護,宮城県角田市角田字中島上170-21,,37.971596800000000,140.787148300000000,0224-61-2777,0224-61-2778,6370102002703,有限会社カナガミケアリンク,0490800018,"平日,土曜日,日曜日,祝日",グループホーム内にて共用型認知症対応型通所介護を行っている。（改行）利用時間延長短縮に対応。（家族送迎にて）,18,http://www.kanagami.or.jp/hanamizuki/,,,,
042099,0490900115,宮城県,多賀城市,デイサービスセンター「市川桜の家」,デイサービスセンターイチカワサクラノイエ,認知症対応型通所介護,宮城県多賀城市市川字奏社３１番地の８,,38.310117500000000,140.994377799999940,022-781-7205,022-781-7206,3370605000322,社会福祉法人功寿会,0490900115,"平日,土曜日,祝日",,3,http://sakuranoie.org/,,,,
042099,0470900093,宮城県,多賀城市,多賀城市留ヶ谷デイサービスセンター,タガジョウシトメガヤデイサービスセンター,認知症対応型通所介護,宮城県多賀城市留ヶ谷一丁目３８番１号,,38.301491100000000,141.003308699999930,022-368-6943,022-368-6943,4370605000172,社会福祉法人　千賀の浦福祉会,0470900093,"平日,土曜日,祝日",,12,http:/www.chiganoura.jp/,,,,
042111,0471100131,宮城県,岩沼市,岩沼市デイサービスセンターさとのもり,イワヌマシデイサービスセンターサトノモリ,認知症対応型通所介護,宮城県岩沼市里の杜三丁目４番１５号,,38.107911400000000,140.879253999999950,0223-29-3737,0223-25-5155,4370805000113,社会福祉法人岩沼市社会福祉協議会,0471100131,"平日,土曜日,日曜日,祝日",認知症対応型：平日　１０人,10,http://www.iwashakyo.or.jp,,,,
042129,0491200069,宮城県,登米市,認知症デイサービスみんなの家,ニンチショウデイサービスミンナノイエ,認知症対応型通所介護,宮城県登米市中田町宝江新井田字並柳前57,,38.674009800000000,141.258285399999980,0220-34-7464,0220-34-5727,2370402000303,有限会社みんなの家,0491200069,"平日,土曜日,日曜日,祝日",年中無休,0,https://www.min-nano-ie.com/,,,,
042129,0491200051,宮城県,登米市,はさまデイサービスセンター,ハサマデイサービスセンター,認知症対応型通所介護,宮城県登米市迫町佐沼字錦１９２－２,,38.688523300000010,141.199549899999960,0220-23-1155,0220-23-1160,5420005002721,医療法人仁泉会,0491200051,"平日,祝日",1月1日、2日休業,12,http://www.sg-nakada.jp/net_hasama.html,,,,
042129,0491200259,宮城県,登米市,デイサービス憩いの里かがの,デイサービスイコイノサトカガノ,認知症対応型通所介護,宮城県登米市中田町石森字加賀野二丁目26番地2,,38.698650428549556,141.213431495580640,0220-23-9331,0220-23-9332,2370401000592,株式会社宮城登米広域介護サービス,0491200259,"平日,土曜日,日曜日,祝日",,3,http://www.kaigoservice.co.jp,,,,
042129,0491200192,宮城県,登米市,認知症デイサービスみんなの家錦織,ニンチショウデイサービスミンナノイエニシキオリ,認知症対応型通所介護,宮城県登米市東和町錦織字内ノ目25-1,,38.733722211434520,141.274660365853860,0220-23-9371,0220-23-9372,2370402000303,有限会社みんなの家,0491200192,"平日,土曜日,日曜日,祝日",・送迎時間の連絡：あらかじめ利用者の方と相談し連絡いたします。行事等を実施するとき　は、通常の送迎時間と異なる場合がありますのでご了承ください。（改行）・体調確認：送迎車を利用される時や、施設に到着した時に利用者の方の状態を把握し、体　調を確認いたします。（改行）・時間変更：ケアプランに基づいた時間でのご利用になりますが、変更を希望される方は、　ご相談下さい。,3,https://www.min-nano-ie.com/,,,,
042129,0491200465,宮城県,登米市,認知症デイサービスみんなの家錦織結い,ニンチショウデイサービスミンナノイエニシキオリユイ,認知症対応型通所介護,宮城県登米市東和町錦織字内ノ目14,,38.734127500000000,141.278491700000000,0220-23-9371,0220-23-9372,2370402000303,有限会社みんなの家,0491200465,"平日,土曜日,日曜日,祝日",・送迎時間の連絡：あらかじめ利用者の方と相談し連絡致します。行事等を実施するときは、通常の送迎時間と異なる場合がありますのでご注意下さい。（改行）・体調確認：送迎車を利用される時間や、施設に到着したときに利用者の方の状態を把握し、体調を確認します。（改行）・時間変更：ケアプランに基づいた時間でのご利用になりますが、変更を希望される方は、ご相談ください。（改行）・設備、器具の利用：当施設の設備、器具のうち利用や、貸出し可能のものもありますので、ご相談ください。,0,https://www.min-nano-ie.com/,,,,
042137,0471300210,宮城県,栗原市,栗原市山王デイサービスセンター,クリハラシサンノウデイサービスセンター,認知症対応型通所介護,宮城県栗原市一迫真坂字新道満３９,,38.744380799999990,140.950220400000030,0228-52-2925,0228-52-2959,1370805000058,社会福祉法人宮城福祉会,0471300210,"平日,土曜日,祝日",,12,,,,,
042137,0491300018,宮城県,栗原市,デイサービスセンター　くりこまの里Ⅱ,デイサービスセンター　クリコマノサトニ,認知症対応型通所介護,宮城県栗原市栗駒稲屋敷大鳥東側1-1,,38.814150000000005,140.985758000000000,0228-45-5550,0228-45-5585,5370005001497,社会福祉法人宮城厚生福祉会,0491300018,"平日,土曜日,祝日",,0,http://www.kou-fuku.or.jp/kuri/,,,,
042145,0491400024,宮城県,東松島市,デイサービスセンター　やもと赤井の里,デイサービスセンター　ヤモトアカイノサト,認知症対応型通所介護,宮城県東松島市赤井字川前四番83番地,,38.435769800000000,141.234730200000060,0225-84-1888,0225-84-1887,2370305000796,社会福祉法人　東松島福祉会,0491400024,"平日,祝日",月・水・金曜日営業。,12,https://hm-hukushikai.or.jp,,,,
042153,0491500013,宮城県,大崎市,大崎市社会福祉協議会　古川福寿館デイサービスセンター,オオサキシシャカイフクシキョウギカイ　フルカワフクジュカンデイサービスセンター,認知症対応型通所介護,大崎市古川大宮七丁目2番3号　福祉センターおおみや内,,38.585823300000000,140.959493200000000,0229-21-3106,0229-22-3133,5370205001396,社会福祉法人　大崎市社会福祉協議会,0491500013,"平日,土曜日,祝日",,0,http://www.osaki-shakyo.com/annai/content0098.html,,,,
044016,0472600337,宮城県,松島町,デイサービスセンター「やすらぎの丘桜の家」,デイサービスセンター「ヤスラギノオカサクラノイエ」,認知症対応型通所介護,宮城県宮城郡松島町桜渡戸字中島１４－１,,38.384123800000000,141.035441300000000,022-355-0411,022-354-6555,3370605000322,社会福祉法人功寿会,0472600337,"平日,土曜日,日曜日,祝日",,0,http://www.sakuranoie.or.jp,,,,
044458,0492800032,宮城県,加美町,デイサービスセンターにこトピア加美,デイサービスセンターニコトピアカミ,認知症対応型通所介護,宮城県加美郡加美町字町裏八番70-1,,38.569048200000000,140.858706699999970,0229-64-1022,0229-64-2215,2420005002963,社会福祉法人　みやぎ会,0492800032,"平日,土曜日,祝日",,12,http://www.sg-miyagikai.jp,,,,
045012,0493100028,宮城県,涌谷町,ゆうらいふデイサービスひび,ユウライフデイサービスヒビ,認知症対応型通所介護,宮城県遠田郡涌谷町涌谷字新下町浦192,,38.539412899999990,141.141148700000030,0229-43-6661,0229-43-6670,9370205001112,社会福祉法人涌谷町社会福祉協議会,0493100028,"平日,土曜日,祝日",,,http://www.wakuya-sfk.net/,,,,
045012,0493100085,宮城県,涌谷町,デイサービス　オレンジキッチン,デイサービス　オレンジキッチン,認知症対応型通所介護,宮城県遠田郡涌谷町猪岡短台字短台40,,38.541958800000010,141.199917899999950,0229-45-2732,0229-25-8220,1370202004315,ＡＡ介護有限会社,0493100085,"平日,祝日",年末年始（12月30日～1月2日）,,,,,,
045012,0493100010,宮城県,涌谷町,デイサービスセンターひまわり,デイサービスセンターヒマワリ,認知症対応型通所介護,宮城県遠田郡涌谷町字立町20番地1,,38.542371976463855,141.128682819014300,0229-43-6655,0229-43-6656,1370205001193,特定非営利活動法人ひまわり,0493100010,"平日,祝日",月・火・木・金曜日の営業（水曜日・土曜日は地域密着型通所介護を実施）,12,,,,,
052019,0590100509,秋田県,秋田市,大学病院前認知症デイサービス,ダイガクビョウインマエニンチショウデイサービス,認知症対応型通所介護,秋田市広面字二階堤２０－１,,39.732102400000000,140.146567900000040,018-893-5422,018-893-5410,9410005001233,企業組合秋田福祉サービス,0590100509,"平日,土曜日,祝日",年末年始休業　1/1～1/4（改行）お盆期間中　通常営業,10,http://www.fukinotou-akita.jp,,,,
052019,0590100814,秋田県,秋田市,認知症対応型デイサービスひなた,ニンチショウタイオウガタデイサービスヒナタ,認知症対応型通所介護,秋田県秋田市土崎港中央四丁目4-16,,39.752608800000010,140.071779200000040,018-816-0577,018-816-0578,5410005001220,社会福祉法人令和ふくし会,0590100814,"平日,土曜日,日曜日,祝日",,3,https://www.reiwafukushikai.com/index.html,,,,
052027,0572208668,秋田県,能代市,特定非営利活動法人　結いの里,トクテイヒエイリカツドウホウジン　ユイノサト,認知症対応型通所介護,能代市二ツ井町種字萩ノ台178,,40.220207500000010,140.223640400000020,0185-71-1127,0185-73-3005,6410005003975,NPO法人　結いの里,0572208668,"平日,土曜日",,0,http://n-yuinosato.com/,,,,
052035,0590300224,秋田県,横手市,木立の舎,コダチノイエ,認知症対応型通所介護,秋田県横手市赤坂字仁坂105番の2,,39.297549500000000,140.533211800000000,0182-32-2878,0182-32-1172,5410005004925,社会福祉法人相和会,0590300224,"平日,祝日",天災その他やむを得ず業務を遂行できない日,10,http://sowakai.jp/,,,,
052035,0590300364,秋田県,横手市,デイサービス慈照庵,デイサービスジショウアン,認知症対応型通所介護,秋田県横手市朝倉町5-19,,39.323198800000000,140.560036600000000,0182-38-8430,0182-38-8431,2410003003163,合同会社朝倉慈照会,0590300364,"平日,祝日",,12,,,,,
052035,0590300117,秋田県,横手市,菜康苑デイサービス南館,サイコウエンデイサービスミナミカン,認知症対応型通所介護,秋田県横手市平鹿町醍醐字道中５６－２,,39.249102200000000,140.542424600000000,0182-25-4575,0182-25-4579,4410002013665,有限会社てんぞ,0590300117,"平日,土曜日,日曜日,祝日",,0,http://gl-saikouen.jp/,,,,
052043,0590400248,秋田県,大館市,デイサービス　縁ゆくり,デイサービス　ユクリ,認知症対応型通所介護,秋田県大館市字桜町35,,40.268933600000000,140.563704599999940,0186578733,0186578743,3410001010128,株式会社　エーアイエム,0590400248,"平日,土曜日",,,https://nursing-agency-1723.business.site/?m=true,,,,
052043,0590400370,秋田県,大館市,デイサービスゆいまーるの家まり,デイサービスユイマールノイエマリ,認知症対応型通所介護,秋田県大館市東台2丁目6-33,,40.267895908599726,140.575811263483980,0186-59-9420,0186-59-9430,9410002008454,有限会社まりＥｎｔｅｒｐｒｉｓｅ,0590400370,"平日,土曜日,祝日",年末・年始休業日につきましては、会社カレンダーにより変動する場合がございます。,0,http://www.kaigo-mari.com/,,,,
052043,0590400206,秋田県,大館市,ケアサポート悠らり,ケアサポートユウラリ,認知症対応型通所介護,秋田県大館市釈迦内字萩長森下３８番地２３,,40.313972597028350,140.568235298280680,0186-57-8864,0186-57-8894,1410001009923,株式会社　一途,0590400206,平日,特になし,12,http://www.it-yuurari.com/,,,,
052078,0570714295,秋田県,湯沢市,グループホームかつら,グループホームカツラ,認知症対応型通所介護,秋田県湯沢市川連町字大舘屋布前124,,39.145439400000000,140.563648699999930,0183-55-8325,0183-55-8326,3410002008179,有限会社桂,0570714295,"平日,土曜日,日曜日,祝日",年末年始、ゴールデンウイーク等、ご希望があればサービス提供を行います。,,https://yuzawa-katsura.co.jp,,,,
052108,0590500062,秋田県,由利本荘市,通所介護事業所きざくら,ツウショカイゴジギョウショキザクラ,認知症対応型通所介護,秋田県由利本荘市東由利老方字後田70-3,,39.305856100000000,140.288267200000060,0184-62-4788,0184-62-4777,9410005002297,社会福祉法人由利本荘市社会福祉協議会,0590500062,"平日,祝日",,3,http://www.yurihonjo-shakyo.jp/,,,,
052116,0591000120,秋田県,潟上市,ディサービスセンター　こもれび,ディサービスセンター　コモレビ,認知症対応型通所介護,秋田県潟上市天王字上江川47-130,,39.875450400000000,139.992872500000000,018-872-2201,018-872-2202,1410002006085,有限会社チョウセイ,0591000120,"平日,祝日",,0,http://www.komorebi-kaigo.com,,,,
052116,0591000096,秋田県,潟上市,デイサービス昭和,デイサービスショウワ,認知症対応型通所介護,秋田県潟上市昭和大久保字北野街道上56番地15,,39.848611500000000,140.043822699999960,018-877-7153,018-877-7154,8410002005626,株式会社サポート昭和,0591000096,"平日,土曜日,日曜日,祝日",施設においてやむを得ない事情が生じた場合は、休むことがある。,3,,,,,
052116,0591000088,秋田県,潟上市,デイサービス　ホプシー,デイサービス　ホプシー,認知症対応型通所介護,秋田県潟上市天王字上北野71-8,,39.821167400000000,140.041849299999970,018-873-7728,018-873-7913,8410002004900,ホプシー有限会社,0591000088,平日,,6,http://www.hoopsii.com/,,,,
052124,0590800058,秋田県,大仙市,デイサービスセンターひびき愛,デイサービスセンターヒビキアイ,認知症対応型通所介護,秋田県大仙市大曲上大町１０番１８号,,39.458328755182370,140.477909847885140,0187-86-3880,0187-86-3881,8410001008150,株式会社えがお,0590800058,"平日,土曜日,祝日",祝日は平常通り（改行）８月の最終土曜日、年末年始（１２/３１～１/３）はお休み,0,http://egao.main.jp/,,,,
052124,0590800488,秋田県,大仙市,えがお神宮寺,エガオジングウジ,認知症対応型通所介護,秋田県大仙市神宮寺字上栗谷田67番5,,39.497085500000000,140.427172500000000,0187-72-4660,0187-87-1165,8410001008150,株式会社えがお,0590800488,"平日,土曜日,日曜日,祝日",,,http://egao.main.jp,,,,
052124,0570804898,秋田県,大仙市,フレンデイ大曲,フレンデイオオマガリ,認知症対応型通所介護,秋田県大仙市飯田字堰東２３５番地,,39.440395000000000,140.485339000000070,0187-63-2073,0187-63-1228,7410005004147,社会福祉法人県南ふくし会,0570804898,"平日,土曜日,祝日",,0,https://www.kennanfukusi.jp/,,,,
052132,0572106136,秋田県,北秋田市,一番星きらら,イチバンボシキララ,認知症対応型通所介護,秋田県北秋田市脇神字高村岱131番地,,40.211650500000000,140.382869300000040,0186-60-0262,0186-60-0263,1410005003286,特定非営利活動法人　一番星きらら,0572106136,平日,土・日・国民の休日の利用は相談に応じます。,12,,,,,
053031,0592000020,秋田県,小坂町,心春,コハル,認知症対応型通所介護,鹿角郡小坂町小坂字上田表４３－１,,40.329081100000000,140.737486200000030,0186-25-8450,0186-25-8450,4410005003358,社会福祉法人小坂町社会福祉協議会,0592000020,"平日,土曜日,祝日",,0,http://kosaka-syakyo.net/,,,,
053490,0592200075,秋田県,八峰町,グループホーム松峰園,グループホームショウホウエン,認知症対応型通所介護,秋田県山本郡八峰町峰浜水沢字下カッチキ台41-58,,40.298895100000000,140.029950200000030,0185-70-3200,0185-70-3250,,株式会社　松峰園,0592200075,"平日,土曜日,祝日",,3,http://www.shouhouen.co.jp/about/,,,,
053635,0592300016,秋田県,八郎潟町,グループホーム　けやき,グループホーム　ケヤキ,認知症対応型通所介護,秋田県南秋田郡八郎潟町夜叉袋字中羽立７４番地の１０,,39.951821100000000,140.077184499999930,018-875-2414,018-855-4088,7410002005503,有限会社　キクチ縫製,0592300016,"平日,土曜日,日曜日,祝日",,6,http://www.facebook.com/ghkeyaki/,,,,
054631,0594000119,秋田県,羽後町,デイサービスやまびこ,デイサービスヤマビコ,認知症対応型通所介護,秋田県雄勝郡羽後町下仙道字風平９７-１,,39.168979000000000,140.319976000000000,0183-58-7620,0183-58-7002,6000020054631,羽後町,0594000119,"平日,土曜日,祝日",,0,,,,,
054631,0592800106,秋田県,羽後町,株式会社　福わらい　デイサービス西の森,カブシキカイシャ　フクワライ　デイサービス　ニシノモリ,認知症対応型通所介護,秋田県雄勝郡羽後町西馬音内字本町102,,39.199270200000000,140.405335199999970,0183-78-7138,0183-78-7158,3410001009236,株式会社　福わらい,0592800106,"平日,土曜日,日曜日,祝日",,3,http://www.fukuwarai8.jp/,,,,
062014,0690100722,山形県,山形市,認知症デイサービスセンターわが家,ニンチショウデイサービスセンターワガヤ,認知症対応型通所介護,山形県山形市荒楯町二丁目9番7号,,38.232021600000000,140.333947399999940,023-674-7610,023-674-7608,1390003001352,合同会社一会,0690100722,"平日,土曜日,祝日",,0,http://wagaya-yamagata.jp/,,,,
062014,0670101674,山形県,山形市,オークランドホーム南原町木洩れ陽,オークランドホームミナミハラマチコモレビ,認知症対応型通所介護,山形県山形市南原町三丁目11-1,,38.233216300000000,140.343982600000000,023-622-9002,023-622-9002,6390001001663,オークランドホーム株式会社,0670101674,"平日,土曜日,日曜日,祝日",,3,http://www.oakland.co.jp/kaigo/,,,,
062014,0670101179,山形県,山形市,オークランドホーム荒楯町さくら苑,オークランドホームアラダテマチサクラエン,認知症対応型通所介護,山形県山形市荒楯町二丁目18-7,,38.230990500000000,140.336647200000020,023-633-2350,023-632-1525,6390001001663,オークランドホーム株式会社,0670101179,"平日,土曜日,日曜日,祝日",時間延長にも対応しているため、利用時間は相談に応じます。,6,http://oakland-kaigo.com,,,,
062014,0670100601,山形県,山形市,とかみ共生苑デイサービスセンター,トカミキョウセイエンデイサービスセンター,認知症対応型通所介護,山形県山形市富神前６番地,,38.237519000000000,140.263339900000000,023-646-5056,023-646-5051,1390005000014,社会福祉法人やまがた市民福祉会,0670100601,"平日,土曜日,祝日",,5,http://www.y-shiminhukushikai.org,,,,
062014,0690100995,山形県,山形市,オレアもとき　認知症対応型通所介護,オレアモトキ　ニンチショウタイオウガタツウショカイゴ,認知症対応型通所介護,山形県山形市元木二丁目９番３９号,,38.223602100000000,140.320056800000000,023-674-9026,023-674-9027,5380001030607,株式会社エヌ・リンク,0690100995,"平日,祝日",年末年始とお盆の期間に関しては、カレンダーを見て年ごとに考慮いたします。,8,https://www.olea-iwaki.com/,,,,
062014,0670101500,山形県,山形市,あかねヶ丘ケアセンター,アカネガオカケアセンター,認知症対応型通所介護,山形県山形市あかねヶ丘3丁目15-7,,38.241020100000000,140.311249399999950,023-647-6630,023-647-6631,2390005001077,医療法人社団楽聖会,0670101500,"平日,土曜日,日曜日,祝日",,24,http://rakusei-kai.or.jp,,,,
062014,0690100243,山形県,山形市,デイサービス　けやきの森,デイサービス　ケヤキノモリ,認知症対応型通所介護,山形市大字漆山字念仏段1903-1,,38.312377447076720,140.356849706568140,023-674-9327,023-674-9187,1390001005751,株式会社　けやきの森,0690100243,"平日,土曜日,日曜日,祝日",,22,http://www.keyakinomori.co.jp,,,,
062031,0673000253,山形県,鶴岡市,指定通所介護事業所「デイサービスセンターであい」,シテイツウショカイゴジギョウショデイサービスセンターデアイ,認知症対応型通所介護,山形県鶴岡市熊出字東村１５７－２,,38.633902800000000,139.850060200000030,0235-53-2850,0235-53-2828,6390005004126,社会福祉法人朝日ぶなの木会,0673000253,"平日,祝日",電話により２４時間連絡が可能な体制にしている。（改行）ご家族の希望に応じて朝、夕食付で延長利用が可能。,0,httｂ：//care-net.biz/06/bunanoki/,,,,
062031,0690700158,山形県,鶴岡市,デイサービス「いろ花」,デイサービスイロハナ,認知症対応型通所介護,鶴岡市下山添字中通40番-1,,38.692823300000000,139.839602900000040,0235-78-7335,0235-57-5959,8390001007122,株式会社　ライフネット,0690700158,"平日,土曜日,日曜日,祝日",・喫煙は決められた場所で行うこと。（改行）・建物や備品及び貸与物品は大切に取り扱うこと。（改行）・所持品を持ち込むときは職員に申し出ること。（改行）・施設内での他の利用者に対する宗教活動及び政治活動は行わないこと。,0,http://www.lifenet-syonai.co.jp,,,,
062031,0670700426,山形県,鶴岡市,グループホームひだまりの家,グループホームヒダマリノイエ,認知症対応型通所介護,山形県鶴岡市茅原町27-1,,38.753724800000000,139.842156299999940,0235-25-5502,0235-25-5501,4390005004004,医療法人社団みつわ会,0670700426,"平日,土曜日,日曜日,祝日",,4,http://www.mituwakai.com,,,,
062031,0670700574,山形県,鶴岡市,グループホーム　なでしこ,グループホーム　ナデシコ,認知症対応型通所介護,鶴岡市齋藤川原字間々下35,,38.707718982579950,139.845831963792820,0235-25-5613,0235-25-5612,7390003000605,ぷらすはーと株式会社,0670700574,"平日,土曜日,日曜日,祝日",なし,3,http://kisuke7778.co.jp/,,,,
062031,0670700525,山形県,鶴岡市,グループホームなずな,グループホーム　ナズナ,認知症対応型通所介護,鶴岡市神明町15-15,,38.720491996730460,139.835988104957440,0235-64-1303,0235-64-1304,7390003000605,ぷらすはーと株式会社,0670700525,"平日,土曜日,日曜日,祝日",なし,0,http://kisuke7778.co.jp/,,,,
062031,0690700133,山形県,鶴岡市,グループホームなな草,グループホームナナクサ,認知症対応型通所介護,山形県鶴岡市外内島字石名田82-23,,38.705984552743210,139.832254657055040,0235-26-0558,0235-33-8853,7390003000605,ぷらすはーと株式会社,0690700133,"平日,土曜日,日曜日,祝日",なし,0,http://kisuke7778.co.jp/,,,,
062031,0670700186,山形県,鶴岡市,デイサービスセンターなえづ,デイサービスセンターナエヅ,認知症対応型通所介護,山形県鶴岡市ほなみ町3番1号,,38.718365000000000,139.844026600000000,0235-25-9255,0235-25-9277,6390005005041,社会福祉法人　鶴岡市社会福祉協議会,0670700186,"平日,土曜日,祝日",年末年始3日間休館日となります,0,http://www.shk01.jp/,,,,
062031,0670700517,山形県,鶴岡市,デイサービスセンターふれあい,デイサービスセンターフレアイ,認知症対応型通所介護,山形県鶴岡市西新斎町１４番２６号,,38.737840400000000,139.814420400000020,0235-29-0370,0235-24-1140,0639000500541,社会福祉法人　鶴岡市社会福祉協議会,0670700517,"平日,土曜日,日曜日,祝日",,0,http://www.shk01.jp/,,,,
062031,0670700178,山形県,鶴岡市,デイサービスセンターたかだて,デイサービスセンタータカダテ,認知症対応型通所介護,山形県鶴岡市友江町23番14号,,38.749920900000000,139.769782299999970,0235-33-0833,0235-33-0854,6390005005041,社会福祉法人鶴岡市社会福祉協議会,0670700178,"平日,土曜日,祝日",日曜日休業,0,http://www/.biz.biglobe.ne.jp/~t-shakyo.,,,,
062031,0673000642,山形県,鶴岡市,認知症高齢者グループホームなごみ,ニンチショウコウレイシャグループホームナゴミ,認知症対応型通所介護,山形県鶴岡市羽黒町赤川字熊坂47番３,,38.725689500000000,139.862074799999960,0235-62-4331,0235-62-3190,2390005005029,特定非営利活動法人大地,0673000642,"平日,土曜日,日曜日,祝日",通常の営業時間帯は、午前９時～午後４時３０分ですが、ご本人やご家族のご要望に応じ、グループホームの特性を生かし、午前７時から午後７時までの時間帯内であれば、利用が可能です。なお、通常時間帯以外のご利用の場合の送迎については、ご家族対応とさせていただきます。,6,http://www7.plala.or.jp/npo-daichi/,,,,
062031,0690700224,山形県,鶴岡市,グループホームなごみ２号館,グループホームナゴミニゴウカン,認知症対応型通所介護,山形県鶴岡市羽黒町三ツ橋字向田46番３,,38.728075278821166,139.862814549633400,0235-62-4881,0235-62-4883,2390005005029,特定非営利活動法人大地,0690700224,"平日,土曜日,日曜日,祝日",年中無休,0,http://www7.plala.or.jp/npo-daichi/,,,,
062049,0670800986,山形県,酒田市,こもれびの郷指定認知症対応型通所介護事業所,コモレビノサトシテイニンチショウタイオウガタツウショカイゴジギョウショ,認知症対応型通所介護,酒田市黒森字境山６１６番１,,38.851273319107160,139.817210546203570,0234-92-3427,0234-92-3351,2390005002868,社会福祉法人　正覚会,0670800986,"平日,祝日",家族の都合により、予定利用日以外の利用も定員内であれば利用可能。,12,http://syokaku-lc.com/,,,,
062049,0690800016,山形県,酒田市,認知症対応型通所介護施設　楽楽,ニンチショウタイオウガタツウショカイゴシセツ　ララ,認知症対応型通所介護,酒田市中町3丁目2－21,,38.918905856608710,139.833764252114860,0234-21-1088,0234-21-1087,2390005002901,医療法人　健友会,0690800016,"平日,土曜日,祝日",長期間の連休となる場合は、事前に利用者及びその家族並び居宅介護支援事業所等の関係機関に周知の上、営業日とする事があります。,12,http://www.kenyukai-sakata.jp,,,,
062049,0690800214,山形県,酒田市,デイサービスセンターサン・シティII,デイサービスセンターサン・シティツー,認知症対応型通所介護,山形県酒田市曙町二丁目２８番地の５,,38.918980700000000,139.863063199999940,0234-26-7770,0234-26-6160,9390005002878,社会福祉法人友和会,0690800214,"平日,土曜日,日曜日,祝日",営業時間には、送迎に係る時間を含みます。また、延長利用にも対応可能です。日曜日の営業に関してでは、当日に３名以上の方がご利用される事が条件となります。,0,www.fuku-yuwakai.jp,,,,
062049,0670800689,山形県,酒田市,グループホームひより,グループホームヒヨリ,認知症対応型通所介護,山形県酒田市京田二丁目69番7,,38.877946189348950,139.837654778109700,0234-25-8380,0234-25-8385,4390005003047,特定非営利活動法人あらた,0670800689,"平日,土曜日,日曜日,祝日",なし,3,http://www.npo-arata.com/,,,,
062073,0691300016,山形県,上山市,認知症対応型通所介護　みゆきの園,ニンチショウタイオウガタツウショカイゴ　ミユキノソノ,認知症対応型通所介護,山形県上山市弁天二丁目2番11号,,38.169924200000000,140.292603900000020,023-672-8585,023-672-8586,5390005002477,社会医療法人みゆき会,0691300016,"平日,祝日",なし,12,https://www.miyuki.or.jp,,,,
062073,0691300081,山形県,上山市,ケアステージおれんじ新丁,ケアステージオレンジシンチョウ,認知症対応型通所介護,山形県上山市新丁1-9,,38.158769600000000,140.280263900000020,023-673-6868,023-673-6869,9390001010793,株式会社テイクオフ,0691300081,"平日,土曜日,日曜日,祝日",年中無休,12,http://www.tokoshie.net/,,,,
062073,0671300184,山形県,上山市,デイサービスセンターまる指定通所介護事業所,デイサービスセンターマルシテイツウショカイゴジギョウショ,認知症対応型通所介護,山形県上山市牧野字清水21-1,,38.115333500000000,140.300603700000000,023-677-2123,023-664-2125,1390005002489,社会福祉法人みゆき福祉会,0671300184,"平日,土曜日,祝日",,12,https://miyuki-fukushi.jp,,,,
062081,0671400059,山形県,村山市,指定認知症対応型通所介護事業所ふもと,シテイニンチショウタイオウガタツウショカイゴジギョウショフモト,認知症対応型通所介護,山形県村山市大字湯野沢956番地の3,,38.462150400000000,140.307155200000000,0237-54-2010,0237-54-3283,2390005005887,社会福祉法人　村山光厚生会,0671400059,"平日,土曜日,祝日",特になし。,0,http://murayama-hikari-kouseikai.jp/,,,,
062090,0691500078,山形県,長井市,リバーヒルデイサービスセンター輝ら凛,リバーヒルデイサービスセンターキラリ,認知症対応型通所介護,山形県長井市館町南9番74号,,38.093458678395500,140.041876534577570,0238-88-1223,0238-88-1228,7390005006939,社会福祉法人長井弘徳会,0691500078,"平日,日曜日,祝日",,0,http://www.riverhill.jp,,,,
062090,0691500086,山形県,長井市,ケアステージおれんじあやめ通り,ケアステージオレンジアヤメドオリ,認知症対応型通所介護,山形県長井市緑町12-50-1,,38.117295400000000,140.040509299999940,0238-88-5433,0238-88-5434,9390001010793,株式会社テイクオフ,0691500086,"平日,土曜日,日曜日,祝日",主治医から何らかの認知症と診断を受けている方。（改行）長井市在住の方。,0,http://www.tokoshie.net,,,,
062103,0691600100,山形県,天童市,社会福祉法人みらい　認知症対応型デイサービス　きらめきの里,シャカイフクシホウジンミライ　ニンチショウタイオウガタデイサービス　キラメキノサト,認知症対応型通所介護,山形県天童市大字山口4540-1,,38.386404400000000,140.408921299999970,023-665-5803,023-665-5255,2390005008452,社会福祉法人みらい,0691600100,"平日,土曜日,祝日",,0,http://www.mirai-welfare.jp/,,,,
062103,0671600187,山形県,天童市,明幸園デイサービスセンター,メイコウエンデイサービスセンター,認知症対応型通所介護,山形県天童市大字矢野目150番地,,38.353137100000000,140.350452000000020,023-653-1530,023-653-1172,2390005002133,社会福祉法人　天童福祉厚生会,0671600187,"平日,土曜日,祝日",なし,0,http://www.meikouen.or.jp,,,,
062111,0671700169,山形県,東根市,デイサービスセンター第二白水荘,デイサービスセンターダイニシロミズソウ,認知症対応型通所介護,東根市大字蟹沢897-1,,38.444236300000000,140.369361100000000,0237-41-1132,0237-42-6121,1390005005946,社会福祉法人東根福祉会,0671700169,"平日,土曜日,祝日",特になし。,0,http://www.higashine-fukushikai.org,,,,
062111,0691700108,山形県,東根市,デイサービスセンター白水荘,デイサービスセンターシロミズソウ,認知症対応型通所介護,山形県東根市大字野川2074番地の99,,38.408747100000010,140.431599300000020,0237-44-2784,0237-44-2883,1390005005946,社会福祉法人東根福祉会,0691700108,"平日,土曜日,祝日",,0,http://www.higashine-fukushikai.org,,,,
062138,0691900112,山形県,南陽市,認知症対応型デイサービスつばさノ杜,ニンチショウタイオウガタデイサービスツバサノモリ,認知症対応型通所介護,山形県南陽市若狭郷屋811-1,,38.052286900000000,140.146139400000000,0238-40-8839,0238-40-8059,7390005002806,社会福祉法人いずみノ杜,0691900112,"平日,祝日",,12,https://www.izumi-no-mori.jp/,,,,
062138,0691900088,山形県,南陽市,ケアステージおれんじ二色根,ケアステージオレンジニイロネ,認知症対応型通所介護,山形県南陽市二色根７４番地１１,,38.050891700000000,140.160265999999980,0238-43-3131,0238-43-3160,9390001010793,株式会社テイクオフ,0691900088,"平日,土曜日,日曜日,祝日",,8,http://www.tokoshie.net,,,,
063215,0672300209,山形県,河北町,指定通所介護事業所「ちょうよう」,シテイツウショカイゴジギョウショチョウヨウ,認知症対応型通所介護,山形県西村山郡河北町谷地字東704番地1,,38.425419356165260,140.323196222090100,0237-72-3786,0237-72-3788,7390005007656,社会福祉法人河北福祉会,0672300209,"平日,土曜日,祝日",なし,8,http://www.tyoyoen.jp,,,,
063215,0692300015,山形県,河北町,認知症対応型通所介護事業所ひいな,ニンチショウタイオウガタツウショカイゴジギョウショヒイナ,認知症対応型通所介護,山形県西村山郡河北町谷地字月山堂1217-5,,38.412633199999990,140.308585000000000,0237-71-1885,0237-71-1881,1390005002489,社会福祉法人みゆき福祉会,0692300015,"平日,土曜日,祝日",特に無し。,0,https://miyuki-fukushi.jp/,,,,
063673,0692500077,山形県,戸沢村,グループホーム紅芭,グループホームクレハ,認知症対応型通所介護,山形県最上郡戸沢村大字津谷字鞭打野2096-1,,38.736393300000000,140.192129600000000,0233-72-9339,0233-72-9338,4390001016218,株式会社くれりあ,0692500077,"平日,土曜日,日曜日,祝日",,,https://clelia.co.jp,,,,
063827,0692600059,山形県,川西町,デイサービスセンターかがやき,デイサービスセンターカガヤキ,認知症対応型通所介護,山形県東置賜郡川西町大字下奥田字穴澤平３７９６番地２０号,,37.989658800000000,140.042326499999940,0238-42-5000,0238-42-5052,6390005006618,医療法人社団緑愛会,0692600059,"平日,土曜日,日曜日,祝日",なし,0,http://www.ryokuaikai.com,,,,
064289,0673000477,山形県,庄内町,グループホーム　ひまわりの丘,グループホーム　ヒマワリノオカ,認知症対応型通所介護,山形県東田川郡庄内町松陽１－１－６,,38.851694800000000,139.894881599999960,0234-45-1050,0234-45-1051,1120005005403,医療法人　徳洲会,0673000477,"平日,土曜日,祝日",,3,,,,,
064289,0673000659,山形県,庄内町,グループホームやまゆりデイサービス,グループホームヤマユリデイサービス,認知症対応型通所介護,山形県東田川郡庄内町狩川字小縄３-３,,38.794619700000000,139.967613900000060,0234-51-2580,0234-51-2581,1390001007013,株式会社狩川佐藤組,0673000659,"平日,土曜日,祝日",,3,http：//g-yamayuri.com/,,,,
072010,0790100473,福島県,福島市,すこやか・ラコパ　別館あかり,スコヤカ・ラコパ　ベッカンアカリ,認知症対応型通所介護,福島県福島市仲間町４－８,,37.756970100000000,140.470712000000050,０２４－５９７－８１１４,０２４－５９７－８０４１,3380005000459,社会福祉法人すこやか福祉会,0790100473,"平日,土曜日,祝日",職員研修等で休業する場合は、１ヵ月前に通知いたします。,12,http://www.sukoyakanosato.jp,,,,
072010,0790100648,福島県,福島市,サンジュデイサービス,サンジュデイサービス,認知症対応型通所介護,福島県福島市伏拝字樋水15-4,,37.722946100000000,140.460819799999970,024-572-3101,024-544-0303,1380001000258,株式会社オオキ,0790100648,平日,,0,https://fp-ooki.co.jp/,,,,
072010,0790100705,福島県,福島市,認知症対応型通所介護事業所　あっぷるの「庭」,ニンチショウタイオウガタツウショカイゴジギョウショ　アップルノ「ニワ」,認知症対応型通所介護,福島県福島市飯坂町字横町11-4,,37.829596500000000,140.451683600000000,024-573-2093,024-573-2693,6380002002686,有限会社ネットワーク調剤,0790100705,"平日,祝日",,0,http://networktyouzai.com,,,,
072010,0790100895,福島県,福島市,愛の家デイサービス福島桜木町,アイノイエデイサービスフクシマサクラギチョウ,認知症対応型通所介護,福島県福島市桜木町13番30号,,37.760564500000000,140.482058100000020,024-525-2270,024-525-2271,2380001023662,メディカル・ケア・サービス福島株式会社,0790100895,平日,,0,http://www.mcsg.co.jp,,,,
072010,0790100960,福島県,福島市,サポート24スタジオ2,サポートニジュウヨンスタジオツー,認知症対応型通所介護,福島県福島市小倉寺字久保下1-4,,37.736823700000000,140.472773500000000,024-572-6301,024-573-9828,,,0790100960,"平日,祝日",,12,,,,,
072010,0790100184,福島県,福島市,愛の家グループホーム福島飯坂,アイノイエグループホームフクシマイイザカ,認知症対応型通所介護,福島県福島市飯坂町平野字中ノ内7-1,,37.805916900000000,140.453538800000000,024-543-1003,024-543-1043,9730001012651,メディカル・ケア・サービス東北株式会社,0790100184,"平日,土曜日,日曜日,祝日",,,http://www.mcsg.co.jp/,,,,
072010,0790100622,福島県,福島市,共用型デイサービスリブレ松川,キョウヨウガタデイサービスリブレマツカワ,認知症対応型通所介護,福島県福島市松川町美郷4丁目13番8,,37.665570582467716,140.472963095106500,024-573-6522,024-537-2515,9370001013930,株式会社リブレ,0790100622,平日,,0,http://www.libre.life-support.jp/?page_id=11,,,,
072010,0790100044,福島県,福島市,ロング・ライフ　フクチャンち　デイサービスセンター,ロング・ライフ　フクチャンチ　デイサービスセンター,認知症対応型通所介護,福島県福島市伏拝字清水内25番地,,37.721932900000000,140.460906800000000,024-546-3627,024-573-2538,7380005000471,社会福祉法人ライフ・タイム・福島,0790100044,平日,,0,www.life-time-fukusima.jp,,,,
072010,0770101772,福島県,福島市,すこやかの里デイサービスセンター別館ひなた認知症対応型通所介護事業所,スコヤカノサトデイサービスセンターシテイツウショカイゴジギョウショ,認知症対応型通所介護,福島県福島市沖高字中島14-1,,37.799874400000000,140.471338300000070,024-554-5025,024-553-3515,3380005000459,社会福祉法人すこやか福祉会,0770101772,"平日,土曜日,祝日",定員以内での振り替え利用可能。一ヶ月前までに関係者各位に文書にてお知らせ。,12,http://www.sukoyakanosato.jp,,,,
072010,0770100758,福島県,福島市,デイサービスセンターグリーンライト,デイサービスセンターグリーンライト,認知症対応型通所介護,福島県福島市飯坂町湯野字梁尻１番地の１,,37.822532500000000,140.456274500000060,024-542-7777,024-543-1141,4380005000466,社会福祉法人福島福祉会,0770100758,"平日,土曜日,祝日",,0,http://care-net.biz/07/ryokukouen/,,,,
072010,0770101020,福島県,福島市,福島市中央デイサービスセンター,フクシマシチュウオウデイサービスセンター,認知症対応型通所介護,福島県福島市森合町10-1福島市保健福祉センター1階,福島市保健福祉センター1階,37.762892899999980,140.463273000000000,024-526-3223,024-528-6145,9380005000016,社会福祉法人福島市社会福祉協議会,0770101020,"平日,土曜日,祝日",,0,http://www.f-shishakyo.or.jp/,,,,
072010,0790100176,福島県,福島市,創世春日町デイサービスセンター,ソウセイカスガチョウデイサービスセンター,認知症対応型通所介護,福島県福島市春日町１４番１４号,,37.767510800000000,140.475027800000020,024-525-1081,024-525-1182,2380005000451,社会福祉法人創世福祉事業団,0790100176,"平日,祝日",,0,,,,,
072010,0790100051,福島県,福島市,有限会社夢と共生の21グループ　夢ひろばふくしま,ユウゲンガイシャユメトキョウセイノニジュウイチグループ　ユメヒロバフクシマ,認知症対応型通所介護,福島県福島市森合南戸ノ内８－１２,,37.766577000000000,140.453840799999970,024-558-0107,024-558-5501,6380002033426,有限会社夢と共生の二十一グループ,0790100051,"平日,土曜日,日曜日,祝日",ご利用者様のニーズに応えて少しでもご家族の介護の軽減が図られればと考えています。,0,http://yumeweb21.web.fc2.com,,,,
072010,0790100267,福島県,福島市,ふれあい・瀬上,フレアイ・セノウエ,認知症対応型通所介護,福島県福島市瀬上町字薬師前１－５８ふれあい・瀬上,ふれあい・瀬上,37.805357900000000,140.495583099999980,024-573-8080,024-573-8081,3380005000459,すこやか福祉会,0790100267,"平日,土曜日,祝日",年間のうち1日、職員研修のために休業する場合あり。,12,https://sukoyakanosato.jp/,,,,
072010,0790100465,福島県,福島市,認知症対応型通所介護事業所「ふるさと」いいざか,ニンチショウタイオウガタツウショカイゴジギョウショフルサトイイザカ,認知症対応型通所介護,福島県福島市飯坂町字八景3-7,,37.825667800000000,140.444672500000020,024-563-5323,024-563-5324,8380005000272,社会医療法人　秀公会,0790100465,"平日,土曜日,日曜日,祝日",365日年中無休,12,http://www.azumanh.or.jp/,,,,
072028,0790200380,福島県,会津若松市,おばちゃんち,オバチャンチ,認知症対応型通所介護,福島県会津若松市七日町13-29,,37.501582600000000,139.923159900000000,0242-22-5123,0242-25-5880,,株式会社cluster,0790200380,"平日,祝日",年末年始休業についてはご利用者・ご家族の希望を踏まえ、対応及び休業日を検討いたします。,60,htt://www.khaos.jp/,,,,
072028,0790200109,福島県,会津若松市,認知症専門デイサービスOASIS　1号館,ニンチショウセンモンデイサービスオアシスイチゴウカン,認知症対応型通所介護,福島県会津若松市山鹿町4番3号,,37.491364200000000,139.923299100000000,0242-38-3386,0242-38-3387,7380005007855,一般財団法人竹田健康財団,0790200109,"平日,土曜日,日曜日,祝日",,0,http://www.takeda.or.jp,,,,
072028,0770200277,福島県,会津若松市,会津長寿園デイサービスセンター　認知症対応型,アイヅチョウジュエンデイサービスセンター　ニンチショウタイオウガタ,認知症対応型通所介護,福島県会津若松市門田町大字黒岩字五百山丙459-3,,37.483393100000000,139.946722599999930,0242-38-4720,0242-38-4766,6380005007880,社会福祉法人会津長寿園,0770200277,"平日,祝日",年末年始（12月30日～1月3日）,1,http://www.choujuen.or.jp/,,,,
072028,0790200067,福島県,会津若松市,みなづるデイサービスセンター,ミナヅルデイサービスセンター,認知症対応型通所介護,福島県会津若松市河東町郡山字中子山25-1,,37.549463100000000,139.926391200000000,0242-75-5501,0242-75-5501,9380005007878,社会福祉法人会津若松市社会福祉協議会,0790200067,平日,,3,http://www.awshakyo.or.jp/,,,,
072028,0790200034,福島県,会津若松市,認知症対応型デイサービスセンター「健康倶楽部家　鶴成館」,ニンチショウタイオウガタデイサービスセンター「クラブハウス　カクセイカン」,認知症対応型通所介護,福島県会津若松市飯寺南三丁目2番21号,,37.476212580813270,139.908303526983670,0242-38-3853,0242-38-3856,2380005007926,医療法人社団　平成会,0790200034,"平日,土曜日,日曜日,祝日",ご要望により営業時間外でも対応。,0,http://www.heiseikai-group.com/,,,,
072028,0790200281,福島県,会津若松市,医療生協デイサービスセンターあおぞら,イリョウセイキョウデイサービスセンターアオゾラ,認知症対応型通所介護,福島県会津若松市神指町黒川字湯川東２０５－１,,37.508009500000014,139.913552399999960,0242-37-1055,0242-37-1016,9380005008050,会津医療生活協同組合,0790200281,"平日,土曜日,日曜日,祝日",,,http://aizu-health.coop/,,,,
072028,0790200158,福島県,会津若松市,認知症専門デイサービスＯＡＳＩＳ　２号館,ニンチショウセンモンデイサービスオアシスニゴウカン,認知症対応型通所介護,福島県会津若松市山鹿町4－3,,37.491364200000000,139.923299100000000,0242-27-5533,0242-27-5550,7380005007855,一般財団法人　竹田健康財団,0790200158,"平日,土曜日,日曜日,祝日",,1,http://www.takeda.or.jp/,,,,
072028,0790200265,福島県,会津若松市,株式会社ケアネット　会津サービスセンター　共用型デイサービスあいづ,カブシキガイシャケアネット　アイヅサービスセンター　キョウヨウガタデイサービスアイヅ,認知症対応型通所介護,福島県会津若松市門田町工業団地37-1,,37.464444200000000,139.912651200000030,0242-85-7080,0242-38-0021,2020001069205,株式会社ケアネット,0790200265,"平日,祝日",,3,http://www.carenet.fujitsu.com/,,,,
072036,0770300945,福島県,郡山市,デイサービスセンターおおつき,デイサービスセンターオオツキ,認知症対応型通所介護,福島県郡山市大槻町字西勝ノ木５番地の１,,37.393480900000000,140.306289399999970,024-962-3939,024-962-3940,7380005002534,社会福祉法人　くわの福祉会,0770300945,"平日,土曜日,祝日",,12,http://kuwano-fukushikai.jp,,,,
072036,0790300685,福島県,郡山市,大槻町　けやきの里,オオツキマチ　ケヤキノサト,認知症対応型通所介護,福島県郡山市大槻町北ノ山22-3,,37.393774600000000,140.315157600000020,024-973-8200,024-973-8208,4380001007671,株式会社あいの里,0790300685,"平日,土曜日,祝日",,,https://ai-nosato.jp,,,,
072036,0770301208,福島県,郡山市,太田玉川デイサービスセンター,オオタタマガワデイサービスセンター,認知症対応型通所介護,福島県郡山市熱海町玉川字阿曽沢11番地1,,37.482491150507680,140.286628126662200,024-984-3844,024-984-3854,7380005002526,社会福祉法人太田福祉記念会,0770301208,"平日,祝日",特になし,12,http://www.ohta-fukushi.or.jp,,,,
072036,0790301006,福島県,郡山市,あかつき,アカツキ,認知症対応型通所介護,福島県郡山市備前舘2-22-6,,37.415938227676780,140.361148442991630,024-983-3874,024-983-3876,6380001022801,ゆたかな実家株式会社,0790301006,平日,,0,https://www.y-jikka.com/,,,,
072036,0790300420,福島県,郡山市,光の里みらい,ヒカリノサトミライ,認知症対応型通所介護,福島県郡山市小原田三丁目16番1号,,37.380716841438210,140.386475893254100,024-973-5432,024-941-0156,6380001007802,株式会社　コスモメディカルサポート,0790300420,"平日,祝日",年末年始（改行）（12/31～1/3）,0,http/cosmo~m~s.co.jp/,,,,
072036,0790300115,福島県,郡山市,医療生協桑の実デイサービスセンター,イリョウセイキョウクワノミデイサービスセンター,認知症対応型通所介護,福島県郡山市島２－23－１7,,37.396573500000000,140.346454499999940,024-923-6219,024-934-7566,5380005002577,郡山医療生活協同組合,0790300115,"平日,土曜日",,0,http://www.koriyama-h-coop.or.jp/,,,,
072036,0770302461,福島県,郡山市,デイサービスセンター光の森の丘,デイサービスセンターヒカリノモリノオカ,認知症対応型通所介護,福島県郡山市安原町字谷津１７１－１,,37.396067100000000,140.416240099999980,024-956-6800,024-956-6300,1380005002531,社会福祉法人　共生福祉会,0770302461,"平日,土曜日,日曜日,祝日",,12,http://hikarino-morinooka.jp/,,,,
072036,0770301919,福島県,郡山市,まるみつでいるーむ,マルミツデイルーム,認知症対応型通所介護,福島県郡山市田村町下行合字宮田130-85,,37.370730300000000,140.410291799999980,024-941-1403,024-941-1404,9010501013359,丸光産業株式会社,0770301919,"平日,土曜日,日曜日,祝日",特になし,10,http://marumitsu-care.jp,,,,
072044,0790400659,福島県,いわき市,ニチイケアセンターいわき小島,ニチイケアセンターイワキ小島,認知症対応型通所介護,福島県いわき市小島町一丁目4-6,,37.049437000000000,140.880877400000030,0246-45-1125,0246-45-1128,3010001025868,株式会社ニチイ学館,0790400659,平日,営業日に祝日であっても営業日となる,,http://www.nichiigakkan.co.jp,,,,
072044,0790401095,福島県,いわき市,認知症対応型デイサービス桜,ニンチショウタイオウガタデイサービスサクラ,認知症対応型通所介護,福島県いわき市錦町前原76-4グループホーム桜,グループホーム桜,36.900415413313170,140.794722111778240,0246-84-5567,0246-84-5542,9380001014102,株式会社　吉田家具店,0790401095,平日,,,,,,,
072044,0790400428,福島県,いわき市,ニチイケアセンターいわき小名浜,ニチイケアセンターイワキオナハマ,認知症対応型通所介護,福島県いわき市小名浜岡小名字仏玄前３－１,,36.958824200000000,140.906564000000000,0246-73-2521,0246-73-2522,3010001025868,株式会社ニチイ学館,0790400428,平日,,0,http://www.nichiigakkan.co.jp,,,,
072044,0790400402,福島県,いわき市,ニチイケアセンターいわき内郷,ニチイケアセンターイワキウチゴウ,認知症対応型通所介護,福島県いわき市内郷高坂町大町30-4,,37.046101600000000,140.862141599999970,0246-45-2511,0246-45-2512,3010001025868,株式会社ニチイ学館,0790400402,平日,,,http://nichiigakkan.co.jp,,,,
072044,0790400410,福島県,いわき市,ニチイケアセンターたいら,ニチイケアセンタータイラ,認知症対応型通所介護,福島県いわき市小島町2丁目6番3号,,37.049279200000000,140.883584299999940,0246-45-3511,0246-45-3512,3010001025868,株式会社ニチイ学館,0790400410,"平日,祝日",,0,http://nichiigakkan.co.jp,,,,
072044,0790400519,福島県,いわき市,ニチイケアセンターいわき小原,ニチケアセンターイワキオオハラ,認知症対応型通所介護,福島県いわき市小名浜大原字内城23-2,,36.970091000000000,140.892511000000000,0246-73-3391,0246-73-3392,3010001025868,株式会社ニチイ学館,0790400519,平日,,,http://nichiigakkan.co.jp,,,,
072044,0790400949,福島県,いわき市,デイサービスことぶき,デイサービスコトブキ,認知症対応型通所介護,福島県いわき市錦町川窪101-3,,36.917247900000000,140.784249900000000,0246-77-0181,0246-77-0570,7380002023566,有限会社　ことぶきケアーサービス,0790400949,平日,,,http://care-net.biz/07/kotobuki/company.php,,,,
072044,0790401210,福島県,いわき市,通所介護あじさい,ツウショカイゴ　アジサイ,認知症対応型通所介護,福島県いわき市佐糠町東1丁目8-7,,36.918940700000000,140.806647000000000,0246-63-2338,0246-63-2338,3380002025830,アイネット株式会社,0790401210,"平日,土曜日,日曜日,祝日",,,https://ainetto-1.jimdosite.com/,,,,
072044,0793230012,福島県,いわき市,認知症対応型グループホーム　高原の家　よつくら,ニンチショウタイオウガタグループホーム　コウゲンノイエ　ヨツクラ,認知症対応型通所介護,福島県いわき市四倉町上仁井田字夕円164,,37.098435987678130,140.979735729499800,0246-32-2039,0246-32-2019,6380002030794,有限会社Ｔ＆Ｔ,0793230012,平日,,,,,,,
072044,0770403251,福島県,いわき市,グループホーム　郷ヶ丘シルバーハウス,グループホーム　サトガオカシルバーハウス,認知症対応型通所介護,福島県いわき市郷ヶ丘二丁目３３番地の５,,37.024881600000000,140.905121500000000,0246-46-1800,0246-46-1810,7380005006659,医療法人いわきＡＭＧ,0770403251,平日,,,,,,,
072044,0790401202,福島県,いわき市,デイサービスセンターいわき,デイサービスセンターイワキ,認知症対応型通所介護,福島県いわき市平字南町48-1,,37.055196000000000,140.894524800000000,0246-68-7047,0246-68-7047,,,0790401202,"平日,土曜日,日曜日,祝日",,0,,,,,
072044,0790400162,福島県,いわき市,デイサービスセンター泉ヶ丘,デイサアビスセンタアイズミガオカ,認知症対応型通所介護,福島県いわき市泉ヶ丘2丁目５３－１,,36.962737400000000,140.860881999999950,0246-56-8663,0246-68-6913,,,0790400162,"平日,土曜日,日曜日,祝日",,0,http://members3.jcom.home.ne.jp/yuusinnkai,,,,
072044,0770403327,福島県,いわき市,グループホーム我が家,グループホームワガヤ,認知症対応型通所介護,福島県いわき市平字橋下1番地ニューアロービル,ニューアロービル,37.051626500000000,140.880952500000000,0246-27-3197,0246-27-3297,7380002022080,有限会社アロー商事,0770403327,平日,,,https://www.grouphome-wagaya.com/,,,,
072044,0770401529,福島県,いわき市,デイサービスセンター聖徳荘,デイサービスセンターセイトクソウ,認知症対応型通所介護,福島県いわき市内郷宮町金坂１８４番地の３,,37.043965500000000,140.846247299999960,0246-26-8100,0246-45-2831,7380005006618,社会福祉法人以和貴会,0770401529,"平日,祝日",なし,0,http://seitokuso.ｊｐ/,,,,
